Restaurant ID,Restaurant Name,Country Code,City,Address,Locality,Locality Verbose,Longitude,Latitude,Cuisines,Average Cost for two,Currency,Has Table booking,Has Online delivery,Is delivering now,Switch to order menu,Price range,Aggregate rating,Rating color,Rating text,Votes,dataset
1,Le Petit Souffle,162,Makati City,"Third Floor, Century City Mall, Kalayaan Avenue, Poblacion, Makati City","Century City Mall, Poblacion, Makati City","Century City Mall, Poblacion, Makati City, Makati City",121.027535,14.565443,"French, Japanese, Desserts",1100,Botswana Pula(P),Yes,No,No,No,3,4.8,Dark Green,Excellent,314,zomato
2,Izakaya Kikufuji,162,Makati City,"Little Tokyo, 2277 Chino Roces Avenue, Legaspi Village, Makati City","Little Tokyo, Legaspi Village, Makati City","Little Tokyo, Legaspi Village, Makati City, Makati City",121.014101,14.553708,Japanese,1200,Botswana Pula(P),Yes,No,No,No,3,4.5,Dark Green,Excellent,591,zomato
3,Heat - Edsa Shangri-La,162,Mandaluyong City,"Edsa Shangri-La, 1 Garden Way, Ortigas, Mandaluyong City","Edsa Shangri-La, Ortigas, Mandaluyong City","Edsa Shangri-La, Ortigas, Mandaluyong City, Mandaluyong City",121.056831,14.581404,"Seafood, Asian, Filipino, Indian",4000,Botswana Pula(P),Yes,No,No,No,4,4.4,Green,Very Good,270,zomato
4,Ooma,162,Mandaluyong City,"Third Floor, Mega Fashion Hall, SM Megamall, Ortigas, Mandaluyong City","SM Megamall, Ortigas, Mandaluyong City","SM Megamall, Ortigas, Mandaluyong City, Mandaluyong City",121.056475,14.585318,"Japanese, Sushi",1500,Botswana Pula(P),No,No,No,No,4,4.9,Dark Green,Excellent,365,zomato
5,Sambo Kojin,162,Mandaluyong City,"Third Floor, Mega Atrium, SM Megamall, Ortigas, Mandaluyong City","SM Megamall, Ortigas, Mandaluyong City","SM Megamall, Ortigas, Mandaluyong City, Mandaluyong City",121.057508,14.58445,"Japanese, Korean",1500,Botswana Pula(P),Yes,No,No,No,4,4.8,Dark Green,Excellent,229,zomato
6,Din Tai Fung,162,Mandaluyong City,"Ground Floor, Mega Fashion Hall, SM Megamall, Ortigas, Mandaluyong City","SM Megamall, Ortigas, Mandaluyong City","SM Megamall, Ortigas, Mandaluyong City, Mandaluyong City",121.056314,14.583764,Chinese,1000,Botswana Pula(P),No,No,No,No,3,4.4,Green,Very Good,336,zomato
7,Buffet 101,162,Pasay City,"Building K, SM By The Bay, Sunset Boulevard, Mall of Asia Complex (MOA), Pasay City","SM by the Bay, Mall of Asia Complex, Pasay City","SM by the Bay, Mall of Asia Complex, Pasay City, Pasay City",120.979667,14.531333,"Asian, European",2000,Botswana Pula(P),Yes,No,No,No,4,4,Green,Very Good,520,zomato
8,Vikings,162,Pasay City,"Building B, By The Bay, Seaside Boulevard, Mall of Asia Complex (MOA), Pasay City","SM by the Bay, Mall of Asia Complex, Pasay City","SM by the Bay, Mall of Asia Complex, Pasay City, Pasay City",120.979333,14.54,"Seafood, Filipino, Asian, European",2000,Botswana Pula(P),Yes,No,No,No,4,4.2,Green,Very Good,677,zomato
9,Spiral - Sofitel Philippine Plaza Manila,162,Pasay City,"Plaza Level, Sofitel Philippine Plaza Manila, CCP Complex, Pasay City","Sofitel Philippine Plaza Manila, Pasay City","Sofitel Philippine Plaza Manila, Pasay City, Pasay City",120.98009,14.55299,"European, Asian, Indian",6000,Botswana Pula(P),Yes,No,No,No,4,4.9,Dark Green,Excellent,621,zomato
10,Locavore,162,Pasig City,"Brixton Technology Center, 10 Brixton Street, Kapitolyo, Pasig City",Kapitolyo,"Kapitolyo, Pasig City",121.056532,14.572041,Filipino,1100,Botswana Pula(P),Yes,No,No,No,3,4.8,Dark Green,Excellent,532,zomato
11,Silantro Fil-Mex,162,Pasig City,"75 East Capitol Drive, Kapitolyo, Pasig City",Kapitolyo,"Kapitolyo, Pasig City",121.057916,14.567689,"Filipino, Mexican",800,Botswana Pula(P),No,No,No,No,3,4.9,Dark Green,Excellent,1070,zomato
12,Mad Mark's Creamery & Good Eats,162,Pasig City,"23 East Capitol Drive, Kapitolyo, Pasig City",Kapitolyo,"Kapitolyo, Pasig City",121.06082,14.570849,"American, Ice Cream, Desserts",900,Botswana Pula(P),Yes,No,No,No,3,4.2,Green,Very Good,488,zomato
13,Silantro Fil-Mex,162,Quezon City,"Second Floor, UP Town Center, Katipunan Avenue, Diliman, Quezon City","UP Town Center, Diliman, Quezon City","UP Town Center, Diliman, Quezon City, Quezon City",121.075419,14.649503,"Filipino, Mexican",800,Botswana Pula(P),No,No,No,No,3,4.8,Dark Green,Excellent,294,zomato
14,Guevarra's,162,San Juan City,"387 P. Guevarra Corner Argonne Street, Addition Hills, San Juan City",Addition Hills,"Addition Hills, San Juan City",121.033592,14.59345,Filipino,1000,Botswana Pula(P),Yes,No,No,No,3,4.2,Green,Very Good,458,zomato
15,Sodam Korean Restaurant,162,San Juan City,"17 J. Abad Santos Drive, Little Baguio, San Juan City",Little Baguio,"Little Baguio, San Juan City",121.03811,14.59889,Korean,700,Botswana Pula(P),No,No,No,No,3,4.3,Green,Very Good,223,zomato
16,Cafe Arabelle,162,Santa Rosa,"Ayala Mall, Solenad, Nuvali, Santa Rosa - Tagaytay Road, Don Jose, Santa Rosa","Nuvali, Don Jose, Santa Rosa","Nuvali, Don Jose, Santa Rosa, Santa Rosa",121.05704,14.237082,"Cafe, American, Italian, Filipino",800,Botswana Pula(P),No,No,No,No,3,3.6,Yellow,Good,29,zomato
17,Nonna's Pasta & Pizzeria,162,Santa Rosa,"Ground Floor, Building G, Solenad 3, Nuvali, Don Jose, Santa Rosa","Solenad 3, Don Jose, Santa Rosa","Solenad 3, Don Jose, Santa Rosa, Santa Rosa",121.056587,14.237679,"Italian, Pizza",850,Botswana Pula(P),No,No,No,No,3,4,Green,Very Good,72,zomato
18,Balay Dako,162,Tagaytay City,"Aguinaldo Highway, Tagaytay City",Tagaytay City,"Tagaytay City, Tagaytay City",120.951589,14.101834,Filipino,1200,Botswana Pula(P),Yes,No,No,No,3,4.5,Dark Green,Excellent,211,zomato
19,Hobing Korean Dessert Cafe,162,Taguig City,"Third Floor, BGC Stopover Pavillion, Rizal Drive Corner 31st Street, Bonifacio Global City, Taguig City","BGC Stopover Pavillion, Bonifacio Global City","BGC Stopover Pavillion, Bonifacio Global City, Taguig City",121.045878,14.55436,"Cafe, Korean, Desserts",600,Botswana Pula(P),No,No,No,No,2,4.5,Dark Green,Excellent,118,zomato
20,Wildflour Cafe + Bakery,162,Taguig City,"Ground Floor, Netlima Building, 4th Avenue Corner 26th Street, Bonifacio Global City, Taguig City",Bonifacio Global City,"Bonifacio Global City, Taguig City",121.04622,14.549337,"Cafe, Bakery, American, Italian",1500,Botswana Pula(P),Yes,No,No,No,4,4.4,Green,Very Good,392,zomato
21,NIU by Vikings,162,Taguig City,"Sixth Floor, SM Aura Premier, C5 Road Corner 26th Street, Bonifacio Global City, Taguig City","SM Aura Premier, Bonifacio Global City, Taguig City","SM Aura Premier, Bonifacio Global City, Taguig City, Taguig City",121.053725,14.545858,"Seafood, American, Mediterranean, Japanese",3000,Botswana Pula(P),Yes,No,No,No,4,4.7,Dark Green,Excellent,535,zomato
22,The Food Hall by Todd English,162,Taguig City,"Fifth Floor, SM Aura Premier, C5 Corner 26th Street, Bonifacio Global City, Taguig City","SM Aura Premier, Bonifacio Global City, Taguig City","SM Aura Premier, Bonifacio Global City, Taguig City, Taguig City",121.0535,14.545655,"American, Asian, Italian, Seafood",1800,Botswana Pula(P),Yes,No,No,No,4,4.5,Dark Green,Excellent,618,zomato
23,Chez Michou,30,BrasÕ_lia,"SCLN, 208, Bloco A, Loja 30, Asa Norte, BrasÕ_lia",Asa Norte,"Asa Norte, BrasÕ_lia",-47.881789,-15.764142,"Fast Food, French",55,Brazilian Real(R$),No,No,No,No,2,3,Orange,Average,6,zomato
24,CafÕ© Daniel Briand,30,BrasÕ_lia,"SCLN 104, Bloco A, Loja 26, Asa Norte, BrasÕ_lia",Asa Norte,"Asa Norte, BrasÕ_lia",-47.882667,-15.7775,Cafe,30,Brazilian Real(R$),No,No,No,No,1,3.8,Yellow,Good,9,zomato
25,Casa do Biscoito Mineiro,30,BrasÕ_lia,"SCLN 210, Bloco D, Loja 36/48, Asa Norte, BrasÕ_lia",Asa Norte,"Asa Norte, BrasÕ_lia",-47.882136,-15.757472,Bakery,45,Brazilian Real(R$),No,No,No,No,2,3.7,Yellow,Good,11,zomato
26,Maori,30,BrasÕ_lia,"CLN 110, Bloco D, Loja 28, Asa Norte, BrasÕ_lia",Asa Norte,"Asa Norte, BrasÕ_lia",-47.888167,-15.758833,Brazilian,60,Brazilian Real(R$),No,No,No,No,3,3.8,Yellow,Good,11,zomato
27,Pizza Õ_ Bessa,30,BrasÕ_lia,"SCS 214, Bloco C, Loja 40, Asa Sul, BrasÕ_lia",Asa Sul,"Asa Sul, BrasÕ_lia",-47.915667,-15.831167,Pizza,50,Brazilian Real(R$),No,No,No,No,2,3.2,Orange,Average,11,zomato
28,Sushi Loko,30,BrasÕ_lia,"SCS 213, Bloco C, Loja 35, Asa Sul, BrasÕ_lia",Asa Sul,"Asa Sul, BrasÕ_lia",-47.915667,-15.831,Japanese,80,Brazilian Real(R$),No,No,No,No,3,3.1,Orange,Average,10,zomato
29,Beirute,30,BrasÕ_lia,"CLS 109, Bloco A, Loja 2/6, Asa Sul, BrasÕ_lia",Asa Sul,"Asa Sul, BrasÕ_lia",-47.9075,-15.82,Arabian,90,Brazilian Real(R$),No,No,No,No,3,3.7,Yellow,Good,8,zomato
30,New Koto,30,BrasÕ_lia,"SCS 212, Bloco B, Loja 26, Asa Sul, BrasÕ_lia",Asa Sul,"Asa Sul, BrasÕ_lia",-47.910167,-15.827333,Japanese,200,Brazilian Real(R$),No,No,No,No,4,3.7,Yellow,Good,5,zomato
31,Sandubas CafÕ©,30,BrasÕ_lia,"EdifÕ_cio JosÕ© Severo, SCS 6, Bloco A, Loja 99, Asa Sul, BrasÕ_lia",Asa Sul,"Asa Sul, BrasÕ_lia",-47.890167,-15.797,"Brazilian, Cafe",30,Brazilian Real(R$),No,No,No,No,1,0,White,Not rated,2,zomato
32,Villa Tevere,30,BrasÕ_lia,"CLS 115, Bloco A, Loja 2, Asa Sul, BrasÕ_lia",Asa Sul,"Asa Sul, BrasÕ_lia",-47.923667,-15.831333,Italian,150,Brazilian Real(R$),No,No,No,No,4,4.1,Green,Very Good,12,zomato
33,Rovereto,30,BrasÕ_lia,"Rua 13 Norte, Lote 4, ÕÅguas Claras, BrasÕ_lia",ÕÅguas Claras,"ÕÅguas Claras, BrasÕ_lia",-48.019,-15.837167,Pizza,100,Brazilian Real(R$),No,No,No,No,4,3.1,Orange,Average,9,zomato
34,Buena Carne,30,BrasÕ_lia,"Avenida AraucÕçrias, 1325, Loja 19, ÕÅguas Claras, BrasÕ_lia",ÕÅguas Claras,"ÕÅguas Claras, BrasÕ_lia",-48.019092,-15.839775,"Bar Food, Brazilian",60,Brazilian Real(R$),No,No,No,No,3,3.6,Yellow,Good,9,zomato
35,Taco Pep,30,BrasÕ_lia,"Vila Malls, Avenida das Castanheiras, Lote 1060, Õóguas Claras, BrasÕ_lia",ÕÅguas Claras,"ÕÅguas Claras, BrasÕ_lia",-48.016667,-15.834833,"Mexican, Grill",100,Brazilian Real(R$),No,No,No,No,4,4.3,Green,Very Good,29,zomato
36,Coco Bambu,30,BrasÕ_lia,"BrasÕ_lia Shopping - Piso 2, SCN 5, Bloco A, Asa Norte, BrasÕ_lia","BrasÕ_lia Shopping, Asa Norte","BrasÕ_lia Shopping, Asa Norte, BrasÕ_lia",-47.889,-15.7865,International,230,Brazilian Real(R$),No,No,No,No,4,4.2,Green,Very Good,17,zomato
37,TaypÕç,30,BrasÕ_lia,"Fashion Park, Shis Ql 17, Bloco G, Loja 208, Lago Sul, BrasÕ_lia",Lago Sul,"Lago Sul, BrasÕ_lia",-47.872359,-15.860621,"Peruvian, Latin American",100,Brazilian Real(R$),No,No,No,No,4,3.6,Yellow,Good,5,zomato
38,Outback Steakhouse,30,BrasÕ_lia,"ParkShopping - Piso 2, SAI/SO, ÕÅrea 6580, GuarÕç I, BrasÕ_lia","ParkShopping, GuarÕç I","ParkShopping, GuarÕç I, BrasÕ_lia",-47.956283,-15.834514,"American, Grill",150,Brazilian Real(R$),No,No,No,No,4,4,Green,Very Good,10,zomato
39,ManzuÕç,30,BrasÕ_lia,"PontÕ£o Lago Sul, SHIS 10, Lote 9, Lago Sul, BrasÕ_lia","PontÕ£o Lago Sul, Lago Sul","PontÕ£o Lago Sul, Lago Sul, BrasÕ_lia",-47.872833,-15.825667,Seafood,240,Brazilian Real(R$),No,No,No,No,4,3.2,Orange,Average,6,zomato
40,Coco Bambu,30,BrasÕ_lia,"SCES, Trecho 2, Conjunto 13/36, Setor de Clubes Esportivos Sul, BrasÕ_lia",Setor De Clubes Esportivos Sul,"Setor De Clubes Esportivos Sul, BrasÕ_lia",-47.8685,-15.819,International,230,Brazilian Real(R$),No,No,No,No,4,4.9,Dark Green,Excellent,30,zomato
41,Gero,30,BrasÕ_lia,"Shopping Iguatemi - piso 1, SHIN CA 4, Lote A, Lago Norte, BrasÕ_lia","Shopping Iguatemi, Lago Norte","Shopping Iguatemi, Lago Norte, BrasÕ_lia",-47.885812,-15.720118,Italian,350,Brazilian Real(R$),No,No,No,No,4,3.3,Orange,Average,8,zomato
42,Brazilian American Burgers,30,BrasÕ_lia,"CLSN 301, Bloco C, Loja 86, Sudoeste, BrasÕ_lia",Sudoeste,"Sudoeste, BrasÕ_lia",-47.921028,-15.797531,"American, Burger",50,Brazilian Real(R$),No,No,No,No,2,3.6,Yellow,Good,9,zomato
43,Pesqueiro Eco Gourmet,30,Rio de Janeiro,"Praia da Barra da Tijuca, Avenida LÕ_cio Costa, Ilha 25, Barra da Tijuca, Rio de Janeiro",Barra da Tijuca,"Barra da Tijuca, Rio de Janeiro",-43.377,-23.0115,"Seafood, Bar Food, Brazilian",140,Brazilian Real(R$),No,No,No,No,4,4,Green,Very Good,7,zomato
44,Confeitaria Colombo,30,Rio de Janeiro,"Rua GonÕ_alves Dias, 32, Centro, Rio de Janeiro",Centro,"Centro, Rio de Janeiro",-43.178826,-22.905293,"Desserts, Cafe",100,Brazilian Real(R$),No,No,No,No,4,4.8,Dark Green,Excellent,29,zomato
45,Bibi,30,Rio de Janeiro,"Rua Santa Clara, 36, Copabana, Rio de Janeiro",Copacabana,"Copacabana, Rio de Janeiro",-43.186692,-22.972072,"Juices, Healthy Food",60,Brazilian Real(R$),No,No,No,No,3,4.7,Dark Green,Excellent,24,zomato
46,Cervantes,30,Rio de Janeiro,"Avenida Prado Junior, 335 B, Copacabana, Rio de Janeiro",Copacabana,"Copacabana, Rio de Janeiro",-43.175833,-22.962167,"Beverages, Bar Food, Fast Food",90,Brazilian Real(R$),No,No,No,No,3,4.5,Dark Green,Excellent,29,zomato
47,Amir,30,Rio de Janeiro,"Rua Ronald de Carvalho, 55, Copacabana, Rio de Janeiro",Copacabana,"Copacabana, Rio de Janeiro",-43.176,-22.965167,Lebanese,170,Brazilian Real(R$),No,No,No,No,4,4.2,Green,Very Good,11,zomato
48,TT Burger,30,Rio de Janeiro,"Galeria River, Rua Francisco Otaviano, 67, Copacabana, Rio de Janeiro","Galeria River, Copacabana","Galeria River, Copacabana, Rio de Janeiro",-43.191,-22.986833,Burger,60,Brazilian Real(R$),No,No,No,No,3,4.8,Dark Green,Excellent,19,zomato
49,Braseiro da GÕçvea,30,Rio de Janeiro,"PraÕ_a Santos Dumont, 116, GÕçvea, Rio de Janeiro",GÕçvea,"GÕçvea, Rio de Janeiro",-43.227042,-22.973507,"Brazilian, Bar Food",100,Brazilian Real(R$),No,No,No,No,4,4.9,Dark Green,Excellent,40,zomato
50,Balada Mix,30,Rio de Janeiro,"Rua AnÕ_bal de MendonÕ_a, 37, Ipanema, Rio de Janeiro",Ipanema,"Ipanema, Rio de Janeiro",-43.211425,-22.985208,"Brazilian, Healthy Food, Juices, Pizza",90,Brazilian Real(R$),No,No,No,No,3,4.6,Dark Green,Excellent,21,zomato
51,Garota de Ipanema,30,Rio de Janeiro,"Rua Vinicius de Moraes, 49, Ipanema, Rio de Janeiro",Ipanema,"Ipanema, Rio de Janeiro",-43.203,-22.985333,"Brazilian, Bar Food",120,Brazilian Real(R$),No,No,No,No,4,4.9,Dark Green,Excellent,49,zomato
52,ZazÕç BistrÕâ Tropical,30,Rio de Janeiro,"Rua Joana AngÕ©lica, 40, Ipanema, Rio de Janeiro",Ipanema,"Ipanema, Rio de Janeiro",-43.205208,-22.985319,Brazilian,170,Brazilian Real(R$),No,No,No,No,4,4.6,Dark Green,Excellent,21,zomato
53,FilÕ© de Ouro,30,Rio de Janeiro,"Rua Jardim BotÕ¢nico, 731, Jardim BotÕ¢nico, Lagoa, Rio de Janeiro",Lagoa,"Lagoa, Rio de Janeiro",-43.219563,-22.966647,Brazilian,90,Brazilian Real(R$),No,No,No,No,3,4.3,Green,Very Good,14,zomato
54,D.O.C Ristorante,30,Rio de Janeiro,"Le Monde, Bloco 3, Lojas A/B, Avenida das AmÕ©ricas, 3500, Barra da Tijuca, Rio de Janeiro","Le Monde, Barra da Tijuca","Le Monde, Barra da Tijuca, Rio de Janeiro",-43.348792,-22.999911,Italian,150,Brazilian Real(R$),No,No,No,No,4,4,Green,Very Good,5,zomato
55,Sushi Leblon,30,Rio de Janeiro,"Rua Dias Ferreira, 256, Leblon, Rio de Janeiro",Leblon,"Leblon, Rio de Janeiro",-43.227,-22.984167,Japanese,250,Brazilian Real(R$),No,No,No,No,4,4.6,Dark Green,Excellent,25,zomato
56,Talho Capixaba,30,Rio de Janeiro,"Avenida Ataulfo de Paiva, 1022, Lojas A e B, Leblon, Rio de Janeiro",Leblon,"Leblon, Rio de Janeiro",-43.225667,-22.985167,"Bakery, Sandwich, Brazilian",120,Brazilian Real(R$),No,No,No,No,4,4.4,Green,Very Good,13,zomato
57,Leme Light,30,Rio de Janeiro,"Rua Gustavo Sampaio, 798, Leme, Rio de Janeiro",Leme,"Leme, Rio de Janeiro",-43.172792,-22.963925,Brazilian,40,Brazilian Real(R$),No,No,No,No,2,4.2,Green,Very Good,7,zomato
58,Shirley,30,Rio de Janeiro,"Rua Gustavo Sampaio, 610, Leme, Rio de Janeiro",Leme,"Leme, Rio de Janeiro",-43.171264,-22.963372,"Brazilian, Seafood",250,Brazilian Real(R$),No,No,No,No,4,4.2,Green,Very Good,8,zomato
59,Quiosque Chopp Brahma,30,Rio de Janeiro,"Madureira Shopping - Loja 289/290, Piso 2, Estrada do Portela, 222, Madureira, Rio de Janeiro, RJ",Madureira,"Madureira, Rio de Janeiro",-43.341164,-22.870413,"Bar Food, Brazilian",70,Brazilian Real(R$),No,No,No,No,3,0,White,Not rated,1,zomato
60,AprazÕ_vel,30,Rio de Janeiro,"Rua AprazÕ_vel, 62, Santa Teresa, Rio de Janeiro",Santa Teresa,"Santa Teresa, Rio de Janeiro",-43.187369,-22.924814,Brazilian,300,Brazilian Real(R$),No,No,No,No,4,4.7,Dark Green,Excellent,44,zomato
61,Aconchego Carioca,30,Rio de Janeiro,"Rua BarÕ£o de Iguatemi, 379, Tijuca, Rio de Janeiro",Tijuca,"Tijuca, Rio de Janeiro",-43.215511,-22.913708,"Brazilian, Bar Food",85,Brazilian Real(R$),No,No,No,No,3,4.6,Dark Green,Excellent,24,zomato
62,Garota de Ipanema,30,Rio de Janeiro,"Avenida JoÕ£o Alves, 56, Urca, Rio de Janeiro",Urca,"Urca, Rio de Janeiro",-43.162667,-22.947833,"Brazilian, Bar Food",80,Brazilian Real(R$),No,No,No,No,3,4.3,Green,Very Good,10,zomato
63,Cantina Famiglia Mancini,30,SÕ£o Paulo,"Rua Avanhandava, 81, Bela Vista, SÕ£o Paulo 10000","Bela Vista, Centro","Bela Vista, Centro, SÕ£o Paulo",-46.645167,-23.550667,"Italian, Pizza",250,Brazilian Real(R$),No,No,No,No,4,4.5,Dark Green,Excellent,49,zomato
64,Templo da Carne - Marcos Bassi,30,SÕ£o Paulo,"Rua Treze de Maio, 668, Bela Vista, SÕ£o Paulo 01327000","Bela Vista, Centro","Bela Vista, Centro, SÕ£o Paulo",-46.646333,-23.559,"Steak, BBQ",250,Brazilian Real(R$),No,No,No,No,4,4.4,Green,Very Good,17,zomato
65,Gopala Hari,30,SÕ£o Paulo,"Rua Antonio Carlos, 429, ConsolaÕ_Õ£o, SÕ£o Paulo",ConsolaÕ_Õ£o,"ConsolaÕ_Õ£o, SÕ£o Paulo",-46.658667,-23.556167,Indian,70,Brazilian Real(R$),No,No,No,No,3,3.1,Orange,Average,5,zomato
66,Jiquitaia,30,SÕ£o Paulo,"Rua AntÕânio Carlos, 268, ConsolaÕ_Õ£o, SÕ£o Paulo",ConsolaÕ_Õ£o,"ConsolaÕ_Õ£o, SÕ£o Paulo",-46.657523,-23.55671,Brazilian,100,Brazilian Real(R$),No,No,No,No,4,4.1,Green,Very Good,15,zomato
67,Skye - Hotel Unique,30,SÕ£o Paulo,"Hotel Unique, Avenida Brigadeiro LuÕ_s AntÕânio, 4700, Jardim Paulista, SÕ£o Paulo","Hotel Unique, Jardim Paulista","Hotel Unique, Jardim Paulista, SÕ£o Paulo",-46.666851,-23.581688,"Beverages, International",300,Brazilian Real(R$),No,No,No,No,4,4.8,Dark Green,Excellent,59,zomato
68,Les 3 Brasseurs,30,SÕ£o Paulo,"Rua JesuÕ_no Arruda, 470, Itaim Bibi, SÕ£o Paulo",Itaim Bibi,"Itaim Bibi, SÕ£o Paulo",-46.67511,-23.582135,"French, Brazilian, Beverages",120,Brazilian Real(R$),No,No,No,No,4,4.6,Dark Green,Excellent,30,zomato
69,Red Steak & Burger,30,SÕ£o Paulo,"Rua TabapuÕ£, 1417, Itaim Bibi, SÕ£o Paulo",Itaim Bibi,"Itaim Bibi, SÕ£o Paulo",-46.683888,-23.585324,"Brazilian, Grill",75,Brazilian Real(R$),No,No,No,No,3,3.9,Yellow,Good,5,zomato
70,Cantinho da Gula,30,SÕ£o Paulo,"Rua Pedroso Alvarenga, 522, Itaim Bibi, SÕ£o Paulo, SP",Itaim Bibi,"Itaim Bibi, SÕ£o Paulo",-46.675667,-23.581,Brazilian,55,Brazilian Real(R$),No,No,No,No,2,0,White,Not rated,0,zomato
71,Paris 6 Classique,30,SÕ£o Paulo,"Rua Haddock Lobo, 1240, Cerqueira CÕ©sar, Jardim Paulista, SÕ£o Paulo",Jardim Paulista,"Jardim Paulista, SÕ£o Paulo",-46.666041,-23.561568,French,200,Brazilian Real(R$),No,No,No,No,4,3.4,Orange,Average,73,zomato
72,Kawa Sushi,30,SÕ£o Paulo,"Alameda Lorena, 300, Jardim Paulista, SÕ£o Paulo",Jardim Paulista,"Jardim Paulista, SÕ£o Paulo",-46.657418,-23.571638,"Sushi, Japanese",120,Brazilian Real(R$),No,No,No,No,4,3.5,Yellow,Good,9,zomato
73,A Figueira Rubaiyat,30,SÕ£o Paulo,"Rua Haddock Lobo, 1738, Cerqueira CÕ©sar, Jardim Paulista, SÕ£o Paulo 10000",Jardim Paulista,"Jardim Paulista, SÕ£o Paulo",-46.669833,-23.5655,"BBQ, Grill, Brazilian",300,Brazilian Real(R$),No,No,No,No,4,4.3,Green,Very Good,39,zomato
74,Kinoshita,30,SÕ£o Paulo,"Rua Jacques FÕ©lix, 405, Vila Nova ConceiÕ_Õ£o, Moema, SÕ£o Paulo",Moema,"Moema, SÕ£o Paulo",-46.671333,-23.592333,Sushi,230,Brazilian Real(R$),No,No,No,No,4,3.9,Yellow,Good,12,zomato
75,Meats,30,SÕ£o Paulo,"Rua dos Pinheiros, 320, Pinheiros, SÕ£o Paulo",Pinheiros,"Pinheiros, SÕ£o Paulo",-46.681333,-23.564833,"Gourmet Fast Food, Burger",120,Brazilian Real(R$),No,No,No,No,4,4.3,Green,Very Good,68,zomato
76,Paribar,30,SÕ£o Paulo,"PraÕ_a Dom JosÕ© Gaspar, 42, RepÕ_blica, SÕ£o Paulo 10000",RepÕ_blica,"RepÕ_blica, SÕ£o Paulo",-46.641594,-23.546642,"Brazilian, Italian",150,Brazilian Real(R$),No,No,No,No,4,4.3,Green,Very Good,46,zomato
77,TerraÕ_o ItÕçlia,30,SÕ£o Paulo,"EdifÕ_cio ItÕçlia - 41ëç Andar, Avenida Ipiranga, 344, RepÕ_blica, SÕ£o Paulo",RepÕ_blica,"RepÕ_blica, SÕ£o Paulo",-46.643425,-23.545163,Italian,400,Brazilian Real(R$),No,No,No,No,4,4.4,Green,Very Good,37,zomato
78,Divino FogÕ£o,30,SÕ£o Paulo,"Shopping MetrÕâ Santa Cruz - Piso L2, Rua Domingos de Morais, 2564, Vila Mariana, SÕ£o Paulo","Shopping MetrÕâ Santa Cruz, Vila Mariana","Shopping MetrÕâ Santa Cruz, Vila Mariana, SÕ£o Paulo",-46.637167,-23.5995,"Brazilian, Mineira",65,Brazilian Real(R$),No,No,No,No,3,0,White,Not rated,2,zomato
79,Super Grill,30,SÕ£o Paulo,"Shopping Morumbi - Piso Lazer, Avenida Roque Petroni JÕ_nior, 1089, Santo Amaro, SÕ£o Paulo","Shopping Morumbi, Santo Amaro","Shopping Morumbi, Santo Amaro, SÕ£o Paulo",-46.698574,-23.622925,Brazilian,50,Brazilian Real(R$),No,No,No,No,2,0,White,Not rated,2,zomato
80,Esquina MocotÕ_,30,SÕ£o Paulo,"Avenida Nossa Senhora do Loreto, 1104, Vila Medeiros, Vila Maria, SÕ£o Paulo",Vila Maria,"Vila Maria, SÕ£o Paulo",-46.581672,-23.486535,"Brazilian, North Eastern",100,Brazilian Real(R$),No,No,No,No,4,4.4,Green,Very Good,22,zomato
81,Veloso,30,SÕ£o Paulo,"Rua ConceiÕ_Õ£o Veloso, 56, Vila Mariana, SÕ£o Paulo",Vila Mariana,"Vila Mariana, SÕ£o Paulo",-46.635667,-23.585167,"Brazilian, Bar Food, Beverages",70,Brazilian Real(R$),No,No,No,No,3,4.6,Dark Green,Excellent,58,zomato
82,Sainte Marie Gastronomia,30,SÕ£o Paulo,"Rua Dom JoÕ£o Batista da Costa, 70, Vila SÕânia, SÕ£o Paulo",Vila SÕânia,"Vila SÕânia, SÕ£o Paulo",-46.746958,-23.609207,"Lebanese, Arabian",120,Brazilian Real(R$),No,No,No,No,4,4.1,Green,Very Good,11,zomato
83,Austin's BBQ and Oyster Bar,216,Albany,"2820 Meredyth Dr, Albany, GA 31707",Albany,"Albany, Albany",-84.221535,31.610387,"BBQ, Burger, Seafood",25,Dollar($),No,No,No,No,2,3.3,Orange,Average,35,zomato
84,BJ's Country Buffet,216,Albany,"2401 Dawson Rd, Albany, GA 31707",Albany,"Albany, Albany",-84.207095,31.608743,"American, BBQ",10,Dollar($),No,No,No,No,1,3.3,Orange,Average,25,zomato
85,Cookie Shoppe,216,Albany,"115 N Jackson St, Albany, GA 31701",Albany,"Albany, Albany",-84.154,31.5772,,0,Dollar($),No,No,No,No,1,3.4,Orange,Average,34,zomato
86,El Vaquero Mexican Restaurant,216,Albany,"2700 Dawson Rd, Albany, GA 31707",Albany,"Albany, Albany",-84.2194,31.6158,Mexican,0,Dollar($),No,No,No,No,1,3.4,Orange,Average,45,zomato
87,Elements Coffee Co - Northwest,216,Albany,"2726 Ledo Rd Ste 10, Albany, GA 31707",Albany,"Albany, Albany",-84.206944,31.622412,"Coffee and Tea, Sandwich",10,Dollar($),No,No,No,No,1,3.4,Orange,Average,26,zomato
88,Pearly's Famous Country Cookng,216,Albany,"814 N Slappey Blvd, Albany, GA 31701",Albany,"Albany, Albany",-84.1759,31.5882,,0,Dollar($),No,No,No,No,1,3.4,Orange,Average,36,zomato
89,Chick-fil-A,216,Albany,"2703 Dawson Rd, Albany, GA 31707",Albany,"Albany, Albany",-84.2193,31.616,Fast Food,10,Dollar($),No,No,No,No,1,3.5,Yellow,Good,67,zomato
90,Guang Zhou Chinese Restaurant,216,Albany,"1214 N Westover Blvd, Albany, GA 31707",Albany,"Albany, Albany",-84.209146,31.615519,"Asian, Chinese, Vegetarian",10,Dollar($),No,No,No,No,1,3.9,Yellow,Good,141,zomato
91,Harvest Moon,216,Albany,"2347 Dawson Road, Albany, GA 31707",Albany,"Albany, Albany",-84.205718,31.604905,"Pizza, Bar Food, Sandwich",25,Dollar($),No,No,No,No,2,3.7,Yellow,Good,147,zomato
92,Henry Campbell's Steakhouse,216,Albany,"629 N. Westover Blvd, Albany, GA 31707",Albany,"Albany, Albany",-84.223278,31.612121,"Steak, Tapas, Bar Food",70,Dollar($),No,No,No,No,4,3.5,Yellow,Good,51,zomato
93,Hong Kong Cafe,216,Albany,"2700 Dawson Rd, Albany, GA 31707",Albany,"Albany, Albany",-84.2191,31.6156,"Chinese, Seafood, Vegetarian",25,Dollar($),No,No,No,No,2,3.6,Yellow,Good,88,zomato
94,House of China Restaurant II,216,Albany,"2526 Dawson Rd Ste A, Albany, GA 31707",Albany,"Albany, Albany",-84.212,31.6104,Chinese,10,Dollar($),No,No,No,No,1,3.8,Yellow,Good,153,zomato
95,Jimmie's Hot Dogs,216,Albany,"204 S Jackson St, Albany, GA 31701",Albany,"Albany, Albany",-84.1534,31.5751,,10,Dollar($),No,No,No,No,1,3.9,Yellow,Good,160,zomato
96,Locos Grill & Pub,216,Albany,"547 N Westover Blvd, Albany, GA 31707",Albany,"Albany, Albany",-84.2228,31.6077,"American, Burger, Sandwich",25,Dollar($),No,No,No,No,2,3.5,Yellow,Good,57,zomato
97,Longhorn Steakhouse,216,Albany,"2733 Dawson Rd, Albany, GA 31707",Albany,"Albany, Albany",-84.2229,31.6185,"American, Steak",25,Dollar($),No,No,No,No,2,3.5,Yellow,Good,58,zomato
98,Mikata Japanese Steakhouse,216,Albany,"2610 Dawson Rd, Albany, GA 31707",Albany,"Albany, Albany",-84.2164,31.6137,"Japanese, Steak, Sushi",40,Dollar($),No,No,No,No,3,3.6,Yellow,Good,115,zomato
99,Shogun Japanese Steak House,216,Albany,"629 N Westover Blvd, Albany, GA 31707",Albany,"Albany, Albany",-84.2233,31.6118,"Japanese, Steak, Sushi",40,Dollar($),No,No,No,No,3,3.5,Yellow,Good,51,zomato
100,The Catch Seafood Room & Oyster Bar,216,Albany,"2332 Whispering Pines Road, Albany, GA 31707",Albany,"Albany, Albany",-84.205025,31.605882,"Seafood, Tapas, Bar Food",40,Dollar($),No,No,No,No,3,3.8,Yellow,Good,250,zomato
101,Villa Gargano,216,Albany,"1604 N Slappey Blvd, Albany, GA 31701",Albany,"Albany, Albany",-84.1757,31.5985,"Italian, Pizza",10,Dollar($),No,No,No,No,1,3.7,Yellow,Good,117,zomato
102,3 Squares Diner,216,Albany,"202 W Franklin St, Sylvester, GA 31791",Sylvester,"Sylvester, Albany",-83.8389,31.5308,"American, Breakfast, Diner",10,Dollar($),No,No,No,No,1,3.4,Orange,Average,20,zomato
103,Whitebull Hotel,14,Armidale,"117 Marsh St, Armidale, NSW",Armidale,"Armidale, Armidale",151.668879,-30.514717,"Bar Food, Steak",20,Dollar($),No,No,No,No,2,3.5,Yellow,Good,25,zomato
104,Last Resort Grill,216,Athens,"184 W Clayton St, Athens, GA 30601",Athens,"Athens, Athens",-83.378273,33.957999,"American, Southern, Southwestern",40,Dollar($),No,No,No,No,3,4.5,Dark Green,Excellent,1821,zomato
105,Mama's Boy Restaurant,216,Athens,"197 Oak St, GA 30601",Athens,"Athens, Athens",-83.3654,33.9535,Southern,10,Dollar($),No,No,No,No,1,4.5,Dark Green,Excellent,849,zomato
106,Sr. Sol 1,216,Athens,"175 Tallassee Rd, Athens, GA 30606",Athens,"Athens, Athens",-83.4293,33.9652,Mexican,10,Dollar($),No,No,No,No,1,4.6,Dark Green,Excellent,917,zomato
107,Choo Choo Eastside,216,Athens,"1055 Gaines School Rd Ste 100, Athens, GA 30605",Athens,"Athens, Athens",-83.3389,33.9259,"Japanese, Korean",10,Dollar($),No,No,No,No,1,3.9,Yellow,Good,439,zomato
108,The Grill,216,Athens,"171 College Ave, Athens, GA 30601",Athens,"Athens, Athens",-83.375523,33.958198,"Breakfast, Burger, Sandwich",10,Dollar($),No,No,No,No,1,3.7,Yellow,Good,289,zomato
109,Big City Bread Cafe,216,Athens,"393 N Finley St, Athens, GA 30601",Athens,"Athens, Athens",-83.384004,33.959392,"Breakfast, Sandwich",10,Dollar($),No,No,No,No,1,4.3,Green,Very Good,558,zomato
110,Clocked,216,Athens,"259 W Washington St, Athens, GA 30601",Athens,"Athens, Athens",-83.3797,33.9584,"American, Burger, Sandwich",10,Dollar($),No,No,No,No,1,4.2,Green,Very Good,613,zomato
111,DePalma's Italian Cafe - Downtown,216,Athens,"401 E Broad St, Athens, GA 30601",Athens,"Athens, Athens",-83.373596,33.958112,"American, Italian, Pizza",25,Dollar($),No,No,No,No,2,4,Green,Very Good,353,zomato
112,DePalma's Italian Cafe - East Side,216,Athens,"1965 Barnett Shoals Rd, Athens, GA 30605",Athens,"Athens, Athens",-83.33995,33.924275,"American, Italian, Pizza",25,Dollar($),No,No,No,No,2,4.1,Green,Very Good,387,zomato
113,Five & Ten,216,Athens,"1073 South Milledge Ave, Athens, GA 30605",Athens,"Athens, Athens",-83.387248,33.941555,American,40,Dollar($),No,No,No,No,3,4.3,Green,Very Good,755,zomato
114,Grit,216,Athens,"199 Prince Ave, Athens, GA 30601",Athens,"Athens, Athens",-83.381625,33.960112,"International, Southern, Vegetarian",10,Dollar($),No,No,No,No,1,4.2,Green,Very Good,800,zomato
115,Ike & Jane,216,Athens,"1307 Prince Ave, Athens, GA 30606",Athens,"Athens, Athens",-83.400887,33.963296,Sandwich,10,Dollar($),No,No,No,No,1,4.1,Green,Very Good,350,zomato
116,La Dolce Vita Ristorante,216,Athens,"323 E Broad St, Athens, GA 30601",Athens,"Athens, Athens",-83.4075,33.9584,Italian,40,Dollar($),No,No,No,No,3,4.1,Green,Very Good,464,zomato
117,Shokitini,216,Athens,"251 W Clayton St, Athens, GA 30601",Athens,"Athens, Athens",-83.379251,33.957503,"Asian, Japanese, Sushi",25,Dollar($),No,No,No,No,2,4.2,Green,Very Good,550,zomato
118,Taqueria Del Sol,216,Athens,"334 Prince Ave, Athens, GA 30601",Athens,"Athens, Athens",-83.383605,33.960571,"Mexican, Spanish",10,Dollar($),No,No,No,No,1,4.1,Green,Very Good,543,zomato
119,The National,216,Athens,"232 W. Hancock Ave., Athens, GA 30601",Athens,"Athens, Athens",-83.37967,33.959468,"International, Southern",40,Dollar($),No,No,No,No,3,4.1,Green,Very Good,465,zomato
120,The Royal Peasant,216,Athens,"1675 S. Lumpkin St., Athens, GA 30606",Athens,"Athens, Athens",-83.38728,33.937502,Bar Food,10,Dollar($),No,No,No,No,1,4.4,Green,Very Good,546,zomato
121,Transmetropolitan,216,Athens,"145 E Clayton St, Athens, GA 30601",Athens,"Athens, Athens",-83.3764,33.9584,"Italian, Pizza, Sandwich",10,Dollar($),No,No,No,No,1,4.4,Green,Very Good,1098,zomato
122,Trappeze Pub,216,Athens,"269 N Hull St, Athens, GA 30601",Athens,"Athens, Athens",-83.378881,33.958363,"Burger, Bar Food",25,Dollar($),No,No,No,No,2,4.2,Green,Very Good,579,zomato
123,Viva! Argentine Cuisine,216,Athens,"247 Prince Ave, Athens, GA 30601",Athens,"Athens, Athens",-83.382822,33.960023,"Desserts, Latin American, Argentine",10,Dollar($),No,No,No,No,1,4.1,Green,Very Good,374,zomato
124,Miyabi Kyoto Japanese Steak House,216,Augusta,"1315 Augusta West Pkwy, Augusta, GA 30909",Augusta,"Augusta, Augusta",-82.0865,33.4721,"Chinese, Steak",40,Dollar($),No,No,No,No,3,4.6,Dark Green,Excellent,717,zomato
125,Rae's Coastal Cafe,216,Augusta,"3208 W Wimbledon Dr, Augusta, GA 30909",Augusta,"Augusta, Augusta",-82.0698,33.4791,"American, Caribbean, Seafood",40,Dollar($),No,No,No,No,3,4.9,Dark Green,Excellent,548,zomato
126,The Bee's Knees,216,Augusta,"211 10th Street, Augusta, GA 30901",Augusta,"Augusta, Augusta",-81.97,33.4765,"International, Tapas, Vegetarian",25,Dollar($),No,No,No,No,2,4.5,Dark Green,Excellent,631,zomato
127,Boll Weevil Cafe,216,Augusta,"10 9th St, Augusta, GA 30901",Augusta,"Augusta, Augusta",-81.9684,33.474,"Desserts, Sandwich, Southern",10,Dollar($),No,No,No,No,1,3.9,Yellow,Good,372,zomato
128,Farmhaus Burger,216,Augusta,"1204 Broad St, Augusta, GA 30901",Augusta,"Augusta, Augusta",-81.973006,33.477444,"American, Burger",25,Dollar($),No,No,No,No,2,3.9,Yellow,Good,201,zomato
129,Manuel's Bread Cafe,216,Augusta,"505 Railroad Ave, North Augusta, GA 29841",Augusta,"Augusta, Augusta",-81.965571,33.481779,"Breakfast, French",40,Dollar($),No,No,No,No,3,3.8,Yellow,Good,332,zomato
130,Sconyers Bar B Que,216,Augusta,"2250 Sconyers Way, Augusta, GA 30906",Augusta,"Augusta, Augusta",-82.0327,33.4086,BBQ,25,Dollar($),No,No,No,No,2,3.5,Yellow,Good,304,zomato
131,Frog Hollow Tavern,216,Augusta,"1282 broad street, Augusta, GA 30901",Augusta,"Augusta, Augusta",-81.974944,33.478231,American,40,Dollar($),No,No,No,No,3,4.3,Green,Very Good,368,zomato
132,Giuseppe's Pizza & Italian Specialities,216,Augusta,"3690 Wheeler Rd, Augusta, GA 30909",Augusta,"Augusta, Augusta",-82.096,33.4827,"Desserts, Italian, Pizza",25,Dollar($),No,No,No,No,2,4.1,Green,Very Good,430,zomato
133,Mellow Mushroom,216,Augusta,"1167 Broad St, Augusta, GA 30901",Augusta,"Augusta, Augusta",-81.9721,33.4778,"Italian, Pizza, Sandwich",25,Dollar($),No,No,No,No,2,4.4,Green,Very Good,433,zomato
134,Nacho Mamas Burritos,216,Augusta,"976 Broad St, Augusta, GA 30901",Augusta,"Augusta, Augusta",-81.9694,33.4764,Mexican,10,Dollar($),No,No,No,No,1,4,Green,Very Good,380,zomato
135,Rhinehart's Oyster Bar,216,Augusta,"3051 Washington Rd, Augusta, GA 30907",Augusta,"Augusta, Augusta",-82.0505,33.5133,"Bar Food, Sandwich, Seafood",25,Dollar($),No,No,No,No,2,4,Green,Very Good,456,zomato
136,Takosushi,216,Augusta,"437 Highland Ave, Augusta, GA 30909",Augusta,"Augusta, Augusta",-82.0301,33.4848,"Mexican, Southwestern, Sushi",40,Dollar($),No,No,No,No,3,4.2,Green,Very Good,647,zomato
137,The Chop House,216,Augusta,"Augusta Mall, Augusta, GA 30909",Augusta,"Augusta, Augusta",-82.080788,33.467201,Steak,40,Dollar($),No,No,No,No,3,4,Green,Very Good,360,zomato
138,The Taj of India,216,Augusta,"502 Furys Ferry Rd, Augusta, GA 30907",Augusta,"Augusta, Augusta",-82.080549,33.537587,Indian,25,Dollar($),No,No,No,No,2,4,Green,Very Good,227,zomato
139,Augsburg Haus,216,Augusta,"4460 Washington Road, Evans, GA 30809",Evans,"Evans, Augusta",-82.143793,33.544342,German,25,Dollar($),No,No,No,No,2,3.9,Yellow,Good,290,zomato
140,Pho Bac,216,Augusta,"4300 Towne Centre, Evans, GA 30809",Evans,"Evans, Augusta",-82.126161,33.532249,Vietnamese,10,Dollar($),No,No,No,No,1,4.1,Green,Very Good,270,zomato
141,Rhinehart's Oyster Bar,216,Augusta,"303 North Bel Air Rd, Evans, GA 30809",Evans,"Evans, Augusta",-82.141284,33.521291,"Burger, Seafood",25,Dollar($),No,No,No,No,2,4,Green,Very Good,326,zomato
142,Thai Kitchen,216,Augusta,"4357 Washington Road, Evans, GA 30809",Evans,"Evans, Augusta",-82.1328,33.5406,Thai,35,Dollar($),No,No,No,No,3,4.3,Green,Very Good,317,zomato
143,El Kiosco Mexican Restaurant,216,Augusta,"5174 Wrightsboro Rd, Grovetown, GA 30813",Grovetown,"Grovetown, Augusta",-82.1997,33.4574,Mexican,10,Dollar($),No,No,No,No,1,4.2,Green,Very Good,300,zomato
144,Taste of Balingup,14,Balingup,"63 South Western Hwy, Balingup, WA",Balingup,"Balingup, Balingup",115.984492,-33.784527,Modern Australian,20,Dollar($),No,No,No,No,2,3.2,Orange,Average,21,zomato
145,Bridge Road Brewers,14,Beechworth,"Old Coach House 50 Ford St, Beechworth, Beechworth, VIC",Beechworth,"Beechworth, Beechworth",146.685852,-36.360439,"Pizza, Bar Food",20,Dollar($),No,No,No,No,2,4.6,Dark Green,Excellent,237,zomato
146,Bardenay,216,Boise,"610 W Grove St, Boise, ID 83702",Boise,"Boise, Boise",-116.2019,43.6138,"American, Bar Food",25,Dollar($),No,No,No,No,2,4.5,Dark Green,Excellent,879,zomato
147,Flatbread Neapolitan Pizzeria,216,Boise,"800 W Main Suite 230, Boise, ID 83702",Boise,"Boise, Boise",-116.203466,43.616068,"Italian, Pizza",25,Dollar($),No,No,No,No,2,4.6,Dark Green,Excellent,615,zomato
148,Goldy's Breakfast Bistro,216,Boise,"108 S Capitol Blvd, Boise, ID 83702",Boise,"Boise, Boise",-116.2023,43.6149,"Breakfast, Sandwich",25,Dollar($),No,No,No,No,2,4.5,Dark Green,Excellent,879,zomato
149,Chandlers Steakhouse,216,Boise,"981 W Grove St, Boise, ID 83702",Boise,"Boise, Boise",-116.2064,43.6157,"American, Seafood, Steak",70,Dollar($),No,No,No,No,4,3.9,Yellow,Good,379,zomato
150,Bar Gernika Basque Pub & Eatery,216,Boise,"202 S Capitol Blvd, Boise, ID 83702",Boise,"Boise, Boise",-116.2031,43.614,"European, Spanish",10,Dollar($),No,No,No,No,1,4.3,Green,Very Good,303,zomato
151,Barbacoa Restaurant,216,Boise,"276 Bobwhite Ct, Boise, ID 83706",Boise,"Boise, Boise",-116.185034,43.597235,"Latin American, Steak",70,Dollar($),No,No,No,No,4,4.1,Green,Very Good,538,zomato
152,Big Jud's,216,Boise,"1289 Protest Rd, Boise, ID 83706",Boise,"Boise, Boise",-116.2062,43.5945,"American, Burger, Sandwich",10,Dollar($),No,No,No,No,1,4.2,Green,Very Good,334,zomato
153,Bittercreek Ale House,216,Boise,"246 N 8th St, Boise, ID 83702",Boise,"Boise, Boise",-116.2022,43.6167,"American, Bar Food",25,Dollar($),No,No,No,No,2,4.3,Green,Very Good,555,zomato
154,Boise Fry Company,216,Boise,"204 N Capitol Blvd, Boise, ID 83702",Boise,"Boise, Boise",-116.193409,43.610279,"American, Burger",10,Dollar($),No,No,No,No,1,4.4,Green,Very Good,823,zomato
155,Flying Pie Pizzaria,216,Boise,"6508 W Fairview Ave, Boise, ID 83704",Boise,"Boise, Boise",-116.2625,43.6192,Pizza,25,Dollar($),No,No,No,No,2,4.1,Green,Very Good,550,zomato
156,Fork,216,Boise,"199 N 8th St, Boise, ID 83702",Boise,"Boise, Boise",-116.202845,43.616295,"American, Burger",25,Dollar($),No,No,No,No,2,4.4,Green,Very Good,650,zomato
157,Guido's Original New York Style Pizza,216,Boise,"235 N 5th St, Boise, ID 83702",Boise,"Boise, Boise",-116.199,43.615,Pizza,10,Dollar($),No,No,No,No,1,4.3,Green,Very Good,410,zomato
158,Los Beto's,216,Boise,"5220 W Fairview Ave, Boise, ID 83706",Boise,"Boise, Boise",-116.2463,43.6191,Mexican,10,Dollar($),No,No,No,No,1,4.4,Green,Very Good,660,zomato
159,Lucianos Italian Restaurant,216,Boise,"11 N Orchard St, Boise, ID 83706",Boise,"Boise, Boise",-116.245165,43.605138,"Italian, Seafood, Vegetarian",25,Dollar($),No,No,No,No,2,4.4,Green,Very Good,360,zomato
160,Mai Thai Restaurant,216,Boise,"750 W Idaho St, Boise, ID 83702",Boise,"Boise, Boise",-116.2021,43.6162,"Sushi, Thai",40,Dollar($),No,No,No,No,3,4,Green,Very Good,340,zomato
161,Shige Japanese Cuisine,216,Boise,"100 N 8th St, Boise, ID 83702",Boise,"Boise, Boise",-116.2031,43.6156,"Japanese, Sushi, Teriyaki",25,Dollar($),No,No,No,No,2,4.1,Green,Very Good,393,zomato
162,The Egg Factory,216,Boise,"8061 W Fairview Ave, Boise, ID 83704",Boise,"Boise, Boise",-116.281809,43.619274,Breakfast,10,Dollar($),No,No,No,No,1,4.3,Green,Very Good,422,zomato
163,Tucanos,216,Boise,"1388 S Entertainment Ave, Boise, ID 83709",Boise,"Boise, Boise",-116.280614,43.591706,Brazilian,40,Dollar($),No,No,No,No,3,4,Green,Very Good,435,zomato
164,Texas Roadhouse,216,Boise,"3801 E Fairview Avenue, Meridian, Boise, ID 83642",Meridian,"Meridian, Boise",-116.347304,43.619108,"American, BBQ, Steak",25,Dollar($),No,No,No,No,2,4,Green,Very Good,369,zomato
165,Brick 29,216,Boise,"320 11th Avenue S, Nampa, ID 83651",Nampa,"Nampa, Boise",-116.5629,43.5777,American,40,Dollar($),No,No,No,No,3,4.4,Green,Very Good,487,zomato
166,Winifreds,216,Cedar Rapids/Iowa City,"3847 1st Ave SE, Cedar Rapids, IA 52402",Cedar Rapids,"Cedar Rapids, Cedar Rapids/Iowa City",-91.6336,42.0179,"American, Mediterranean, Seafood",40,Dollar($),No,No,No,No,3,3.7,Yellow,Good,98,zomato
167,Biaggi's Ristorante Italiano,216,Cedar Rapids/Iowa City,"320 Collins Rd NE, Cedar Rapids, IA 52402",Cedar Rapids,"Cedar Rapids, Cedar Rapids/Iowa City",-91.6327,42.0281,"Italian, Pizza",40,Dollar($),No,No,No,No,3,4.1,Green,Very Good,365,zomato
168,El Super Burrito,216,Cedar Rapids/Iowa City,"3300 Johnson Ave NW, Cedar Rapids, IA 52405",Cedar Rapids,"Cedar Rapids, Cedar Rapids/Iowa City",-91.7148,41.9748,Mexican,10,Dollar($),No,No,No,No,1,4.1,Green,Very Good,190,zomato
169,Granite City Food & Brewery,216,Cedar Rapids/Iowa City,"4755 1st Ave SE, Cedar Rapids, IA 52402",Cedar Rapids,"Cedar Rapids, Cedar Rapids/Iowa City",-91.6224,42.0249,"American, Breakfast, Burger",40,Dollar($),No,No,No,No,3,4.1,Green,Very Good,429,zomato
170,Irish Democrat,216,Cedar Rapids/Iowa City,"3207 1st Ave SE, Cedar Rapids, IA 52402",Cedar Rapids,"Cedar Rapids, Cedar Rapids/Iowa City",-91.6347,42.01,"American, BBQ, Burger",25,Dollar($),No,No,No,No,2,4.4,Green,Very Good,430,zomato
171,Taste of India,216,Cedar Rapids/Iowa City,"1060 Old Marion Rd NE, Cedar Rapids, IA 52402",Cedar Rapids,"Cedar Rapids, Cedar Rapids/Iowa City",-91.649962,42.021535,Indian,25,Dollar($),No,No,No,No,2,4.2,Green,Very Good,186,zomato
172,Thai Moon Restaurant,216,Cedar Rapids/Iowa City,"4362 16th Ave SW, Cedar Rapids, IA 52404",Cedar Rapids,"Cedar Rapids, Cedar Rapids/Iowa City",-91.7266,41.9639,"Chinese, Sushi, Thai",10,Dollar($),No,No,No,No,1,4.2,Green,Very Good,220,zomato
173,Ting's Red Lantern,216,Cedar Rapids/Iowa City,"540 Boyson Rd NE, Cedar Rapids, IA 52402",Cedar Rapids,"Cedar Rapids, Cedar Rapids/Iowa City",-91.6394,42.0468,Chinese,10,Dollar($),No,No,No,No,1,4.2,Green,Very Good,347,zomato
174,Monica's,216,Cedar Rapids/Iowa City,"303 2nd Street, Coralville, IA 52241",Coralville,"Coralville, Cedar Rapids/Iowa City",-91.569767,41.670466,"American, Italian, Pizza",25,Dollar($),No,No,No,No,2,3.8,Yellow,Good,161,zomato
175,Exotic India,216,Cedar Rapids/Iowa City,"102 2nd Ave, Coralville, IA 52241",Coralville,"Coralville, Cedar Rapids/Iowa City",-91.5687,41.6685,Indian,25,Dollar($),No,No,No,No,2,4.1,Green,Very Good,160,zomato
176,Shorts Burger and Shine,216,Cedar Rapids/Iowa City,"18 S Clinton St, Iowa City, IA 52240",Iowa City,"Iowa City, Cedar Rapids/Iowa City",-91.534424,41.660982,Burger,10,Dollar($),No,No,No,No,1,4.9,Dark Green,Excellent,820,zomato
177,The Hamburg Inn No. 2 Inc.,216,Cedar Rapids/Iowa City,"214 N Linn St, Iowa City, IA 52245",Iowa City,"Iowa City, Cedar Rapids/Iowa City",-91.531414,41.663849,"American, Breakfast, Burger",10,Dollar($),No,No,No,No,1,4.5,Dark Green,Excellent,488,zomato
178,Bluebird Diner,216,Cedar Rapids/Iowa City,"330 E Market St, Iowa City, IA 52245",Iowa City,"Iowa City, Cedar Rapids/Iowa City",-91.531093,41.663751,"Breakfast, Diner",25,Dollar($),No,No,No,No,2,3.6,Yellow,Good,253,zomato
179,Graze,216,Cedar Rapids/Iowa City,"115 East College St, Iowa City, IA 52240",Iowa City,"Iowa City, Cedar Rapids/Iowa City",-91.534302,41.658691,"American, International, Sushi",40,Dollar($),No,No,No,No,3,3.8,Yellow,Good,220,zomato
180,A & A Pagliai's Pizza,216,Cedar Rapids/Iowa City,"302 E Bloomington St, Iowa City, IA 52245",Iowa City,"Iowa City, Cedar Rapids/Iowa City",-91.5314,41.6648,Pizza,25,Dollar($),No,No,No,No,2,4.3,Green,Very Good,485,zomato
181,Atlas World Grill,216,Cedar Rapids/Iowa City,"127 Iowa Ave, Iowa City, IA 52240",Iowa City,"Iowa City, Cedar Rapids/Iowa City",-91.5341,41.661,International,40,Dollar($),No,No,No,No,3,4.3,Green,Very Good,428,zomato
182,BlackStone,216,Cedar Rapids/Iowa City,"503 Westbury Dr Ste 1, Iowa City, IA 52245",Iowa City,"Iowa City, Cedar Rapids/Iowa City",-91.482165,41.667742,"American, Breakfast",25,Dollar($),No,No,No,No,2,4.1,Green,Very Good,294,zomato
183,Devotay,216,Cedar Rapids/Iowa City,"117 N Linn St, Iowa City, IA 52245",Iowa City,"Iowa City, Cedar Rapids/Iowa City",-91.5318,41.6625,"Mediterranean, Tapas, Vegetarian",40,Dollar($),No,No,No,No,3,4,Green,Very Good,380,zomato
184,Jimmy Jack's Rib Shack,216,Cedar Rapids/Iowa City,"1940 Lower Muscatine Rd, Iowa City, IA 52240",Iowa City,"Iowa City, Cedar Rapids/Iowa City",-91.5074,41.6428,BBQ,25,Dollar($),No,No,No,No,2,4.2,Green,Very Good,259,zomato
185,Zoeys Pizzeria,216,Cedar Rapids/Iowa City,"690 10th St, Marion, IA 52302",Marion,"Marion, Cedar Rapids/Iowa City",-91.5995,42.0331,"Pizza, Sandwich",25,Dollar($),No,No,No,No,2,4.7,Dark Green,Excellent,433,zomato
186,Tokyo Sushi,37,Chatham-Kent,"150 Richmond St, Chatham-Kent, ON N7M2V2",Chatham-Kent,"Chatham-Kent, Chatham-Kent",-82.188438,42.397683,"Japanese, Sushi",25,Dollar($),No,No,No,No,2,3.7,Yellow,Good,176,zomato
187,Berry Patch Restaurant,216,Clatskanie,"49289 Us-30, Westport, OR 97016",Clatskanie,"Clatskanie, Clatskanie",-123.368151,46.126967,"American, Breakfast, Desserts",10,Dollar($),No,No,No,No,1,4.3,Green,Very Good,96,zomato
188,Sakura Sushi & Grill,216,Cochrane,"130 Quarry Street, Unit 20, Cochrane, AB T4C 0W5",Cochrane,"Cochrane, Cochrane",-114.472474,51.183934,"Asian, Japanese",25,Dollar($),No,No,No,No,2,3.1,Orange,Average,6,zomato
189,Uptown Vietnam cuisine,216,Columbus,"1250 Broadway, Columbus, GA 31901",Columbus,"Columbus, Columbus",-84.992671,32.470315,"Asian, Vietnamese",10,Dollar($),No,No,No,No,1,3.3,Orange,Average,33,zomato
190,Cafe Le Rue @ The Landings,216,Columbus,"2523 Airport Thruway, Columbus, GA 31904",Columbus,"Columbus, Columbus",-84.95591,32.519247,"American, Seafood, Cajun",25,Dollar($),No,No,No,No,2,4.6,Dark Green,Excellent,489,zomato
191,Mark's City Grille,216,Columbus,"7160 moon road, Columbus, GA 31909",Columbus,"Columbus, Columbus",-84.927047,32.555591,American,25,Dollar($),No,No,No,No,2,4.5,Dark Green,Excellent,345,zomato
192,B Merrell's,216,Columbus,"7600 Veterans Pkwy, Columbus, GA 31909",Columbus,"Columbus, Columbus",-84.9436,32.5577,"Burger, Bar Food, Southern",25,Dollar($),No,No,No,No,2,3.8,Yellow,Good,149,zomato
193,Cannon Brewpub,216,Columbus,"1041 Broadway, Columbus, GA 31901",Columbus,"Columbus, Columbus",-84.9936,32.4656,"Pizza, Bar Food",25,Dollar($),No,No,No,No,2,3.9,Yellow,Good,330,zomato
194,Fuji Japanese Steak House,216,Columbus,"6499 Veterans Pkwy, Columbus, GA 31909",Columbus,"Columbus, Columbus",-84.954984,32.53822,"Japanese, Steak",40,Dollar($),No,No,No,No,3,3.9,Yellow,Good,247,zomato
195,Ruth Ann's Family Restaurant,216,Columbus,"941 Veterans Parkway, Columbus, GA 31901",Columbus,"Columbus, Columbus",-84.9876,32.4637,"Breakfast, Diner, Southern",10,Dollar($),No,No,No,No,1,3.7,Yellow,Good,123,zomato
196,Samurai Japanese Cuisine & Sushi Bar,216,Columbus,"1009 Broadway, Columbus, GA 31901",Columbus,"Columbus, Columbus",-84.993363,32.465242,"Japanese, Steak, Sushi",40,Dollar($),No,No,No,No,3,3.6,Yellow,Good,109,zomato
197,Wasabi Sushi and Thai,216,Columbus,"1639 Bradley Park Dr, Columbus, GA 31904",Columbus,"Columbus, Columbus",-84.96661,32.534002,"Japanese, Sushi, Thai",40,Dollar($),No,No,No,No,3,3.7,Yellow,Good,134,zomato
198,Buckhead Bar and Grill,216,Columbus,"5010 Armour Rd, Columbus, GA 31904",Columbus,"Columbus, Columbus",-84.95367,32.513154,"Seafood, Steak, Vegetarian",40,Dollar($),No,No,No,No,3,4.2,Green,Very Good,722,zomato
199,Burt's Butcher Shoppe and Eatery,216,Columbus,"2932 Warm Springs Rd, Columbus, GA 31909",Columbus,"Columbus, Columbus",-84.947569,32.504657,Steak,25,Dollar($),No,No,No,No,2,4.3,Green,Very Good,213,zomato
200,Chef Lee's Peking Restaurant,216,Columbus,"6100 Bradley Park Dr, Columbus, GA 31904",Columbus,"Columbus, Columbus",-84.9607,32.5393,Chinese,25,Dollar($),No,No,No,No,2,4,Green,Very Good,335,zomato
201,Country's Barbecue,216,Columbus,"3137 Mercury Dr, Columbus, GA 31906",Columbus,"Columbus, Columbus",-84.9464,32.4792,"BBQ, Southern",25,Dollar($),No,No,No,No,2,4,Green,Very Good,353,zomato
202,Deorio's,216,Columbus,"3201 Macon Rd Ste 167, Columbus, GA 31906",Columbus,"Columbus, Columbus",-84.9427,32.481,"Italian, Pizza",0,Dollar($),No,No,No,No,1,4,Green,Very Good,170,zomato
203,Mellow Mushroom,216,Columbus,"6100 Veterans Pkwy, Columbus, GA 31909",Columbus,"Columbus, Columbus",-84.9557,32.5321,Pizza,25,Dollar($),No,No,No,No,2,4.1,Green,Very Good,192,zomato
204,Meritage,216,Columbus,"1039 1st Ave, Columbus, GA 31901",Columbus,"Columbus, Columbus",-84.992093,32.466158,"American, Tapas",40,Dollar($),No,No,No,No,3,4.1,Green,Very Good,302,zomato
205,Mongo The Mongolian Fire Pit,216,Columbus,"7830 - E Veterans Pkwy, Columbus, GA 31909",Columbus,"Columbus, Columbus",-84.938698,32.560905,"Asian, Chinese",10,Dollar($),No,No,No,No,1,4.2,Green,Very Good,355,zomato
206,The Black Cow,216,Columbus,"115 A 12th St, Columbus, GA 31901",Columbus,"Columbus, Columbus",-84.991384,32.468757,American,25,Dollar($),No,No,No,No,2,4.3,Green,Very Good,287,zomato
207,Wood Stone,216,Columbus,"5739 Whitesville Rd, Columbus, GA 31904",Columbus,"Columbus, Columbus",-84.963201,32.527217,"Italian, Mediterranean, Pizza",40,Dollar($),No,No,No,No,3,4,Green,Very Good,264,zomato
208,Hunter's Pub,216,Columbus,"11269 GA Hwy 219, Hamilton, GA 31811",Hamilton,"Hamilton, Columbus",-85.0213,32.7455,"American, Seafood, Steak",40,Dollar($),No,No,No,No,3,4.4,Green,Very Good,235,zomato
209,Consort Restaurant,37,Consort,"4931 50th Street, Consort, AB T0C 1B0",Consort,"Consort, Consort",-110.774699,52.008289,"Chinese, Canadian",25,Dollar($),No,No,No,No,2,3,Orange,Average,6,zomato
210,Thatcher's Barbeque and Grill,216,Dalton,"1214 N Wall St, Calhoun, GA 30701",Calhoun,"Calhoun, Dalton",-84.939693,34.525133,"American, BBQ, Southern",25,Dollar($),No,No,No,No,2,3.7,Yellow,Good,38,zomato
211,Christian and Jake's Bistro,216,Dalton,"555 Georgia Hwy 53, Calhoun, GA 30701",Calhoun,"Calhoun, Dalton",-84.926258,34.474635,"Desserts, Sandwich",10,Dollar($),No,No,No,No,1,4.4,Green,Very Good,122,zomato
212,Dub's High on the Hog,216,Dalton,"349 S Wall St, Calhoun, GA 30701",Calhoun,"Calhoun, Dalton",-84.952392,34.497249,BBQ,25,Dollar($),No,No,No,No,2,4.4,Green,Very Good,207,zomato
213,Sierra's Mexican Restaurant,216,Dalton,"500 S. 3rd Avenue, Chatsworth, GA 30705",Chatsworth,"Chatsworth, Dalton",-84.767911,34.752476,"Mexican, Tex-Mex",10,Dollar($),No,No,No,No,1,3.9,Yellow,Good,66,zomato
214,Oakwood Cafe,216,Dalton,"201 West Cuyler Street, Dalton, GA 30720",Dalton,"Dalton, Dalton",-84.969393,34.769686,"BBQ, Breakfast, Southern",10,Dollar($),No,No,No,No,1,4.9,Dark Green,Excellent,249,zomato
215,Chili's Grill & Bar,216,Dalton,"881 College Dr, Dalton, GA 30720",Dalton,"Dalton, Dalton",-85.0039,34.7643,American,25,Dollar($),No,No,No,No,2,3.8,Yellow,Good,63,zomato
216,Fuji Japanese Steakhouse,216,Dalton,"1321 W Walnut Ave, Dalton, GA 30720",Dalton,"Dalton, Dalton",-84.992342,34.759551,"Japanese, Sushi",40,Dollar($),No,No,No,No,3,3.8,Yellow,Good,145,zomato
217,Las Palmas,216,Dalton,"1331 W Walnut Ave, Dalton, GA 30720",Dalton,"Dalton, Dalton",-84.992924,34.759665,Mexican,10,Dollar($),No,No,No,No,1,3.8,Yellow,Good,83,zomato
218,Tony's Italian Restaurant & Pizza,216,Dalton,"933 Market St, Dalton, GA 30720",Dalton,"Dalton, Dalton",-84.999678,34.758645,Italian,25,Dollar($),No,No,No,No,2,3.7,Yellow,Good,116,zomato
219,Filling Station,216,Dalton,"316 N Hamilton St, Dalton, GA 30720",Dalton,"Dalton, Dalton",-84.9678,34.7742,"American, Burger",10,Dollar($),No,No,No,No,1,4.1,Green,Very Good,122,zomato
220,Five Guys Burgers and Fries,216,Dalton,"1303 W. Walnut Ave., Dalton, GA 30720",Dalton,"Dalton, Dalton",-84.990925,34.759273,Fast Food,10,Dollar($),No,No,No,No,1,4.1,Green,Very Good,142,zomato
221,Los Pablos,216,Dalton,"1513 W Walnut Ave Ste 6, Dalton, GA 30720",Dalton,"Dalton, Dalton",-84.9964,34.7604,Mexican,10,Dollar($),No,No,No,No,1,4.1,Green,Very Good,114,zomato
222,Kobe Hibachi & Sushi,216,Dalton,"2603 Battlefield Pkwy, Fort Oglethorpe, GA 30742",Fort Oglethorpe,"Fort Oglethorpe, Dalton",-85.22291,34.942879,"American, Japanese, Sushi",25,Dollar($),No,No,No,No,2,4.6,Dark Green,Excellent,214,zomato
223,Soho Hibachi,216,Dalton,"1014 Battlefield Parkway, Fort Oglethorpe, GA 30742",Fort Oglethorpe,"Fort Oglethorpe, Dalton",-85.246237,34.952816,Japanese,10,Dollar($),No,No,No,No,1,4.3,Green,Very Good,116,zomato
224,Thai Garden,216,Dalton,"685 Battlefield Pkwy, Fort Oglethorpe, GA 30742",Fort Oglethorpe,"Fort Oglethorpe, Dalton",-85.2545,34.9546,Thai,25,Dollar($),No,No,No,No,2,4.2,Green,Very Good,111,zomato
225,Southern Bliss Bakery,216,Dalton,"300 W Patton St., Lafayette, GA 30728",LaFayette,"LaFayette, Dalton",-85.294955,34.705093,"Desserts, Sandwich",10,Dollar($),No,No,No,No,1,3.7,Yellow,Good,25,zomato
226,Bailey's Bar-B-Que,216,Dalton,"5540 Highway 41, Ringgold, GA 30736",Ringgold,"Ringgold, Dalton",-85.1321,34.9273,BBQ,10,Dollar($),No,No,No,No,1,4.1,Green,Very Good,128,zomato
227,Farm To Fork,216,Dalton,"118 Remco Shops Lane, Ringgold, GA 30736",Ringgold,"Ringgold, Dalton",-85.130492,34.912109,"American, Diner, Southern",10,Dollar($),No,No,No,No,1,4.3,Green,Very Good,244,zomato
228,Home Plate Grill,216,Dalton,"7807 Nashville St, Ringgold, GA 30736",Ringgold,"Ringgold, Dalton",-85.10794,34.915185,"American, BBQ, Southern",10,Dollar($),No,No,No,No,1,4.2,Green,Very Good,112,zomato
229,Pie Slingers Pizzeria,216,Dalton,"56A Fieldstone Village Drive, Rock Spring, GA 30739",Rock Spring,"Rock Spring, Dalton",-85.249727,34.851907,"Italian, Pizza",10,Dollar($),No,No,No,No,1,4.1,Green,Very Good,144,zomato
230,Olive Tree Cafe,216,Davenport,"2513 53rd Avenue, Bettendorf, IA 52722",Bettendorf,"Bettendorf, Davenport",-90.496986,41.574935,"Indian, Mediterranean, Middle Eastern",25,Dollar($),No,No,No,No,2,4.6,Dark Green,Excellent,166,zomato
231,"Red Ginger Sushi, Grill & Bar",216,Davenport,"793 Middle Rd, Bettendorf, IA 52722",Bettendorf,"Bettendorf, Davenport",-90.522479,41.53845,"Sushi, Teriyaki",40,Dollar($),No,No,No,No,3,4.5,Dark Green,Excellent,208,zomato
232,Crust Stone Oven Pizza,216,Davenport,"2561 E 53rd Ave, Bettendorf, IA 52722",Bettendorf,"Bettendorf, Davenport",-90.491245,41.57478,"Burger, Pizza",25,Dollar($),No,No,No,No,2,3.9,Yellow,Good,136,zomato
233,Jimmy's Pancake House,216,Davenport,"2521 - 18th St., Bettendorf, IA 52722",Bettendorf,"Bettendorf, Davenport",-90.504176,41.548746,"American, Breakfast, Greek",10,Dollar($),No,No,No,No,1,4,Green,Very Good,85,zomato
234,Trattoria Tiramisu,216,Davenport,"1804 State St, Bettendorf, IA 52722",Bettendorf,"Bettendorf, Davenport",-90.50709,41.525384,Italian,25,Dollar($),No,No,No,No,2,4.1,Green,Very Good,117,zomato
235,Prairie Grille at SteepleGate Inn,216,Davenport,"100 W 76th St, Davenport, IA 52806",Davenport,"Davenport, Davenport",-90.574088,41.593892,"American, Breakfast",25,Dollar($),No,No,No,No,2,3.4,Orange,Average,53,zomato
236,Tantra Asian Bistro,216,Davenport,"589 East 53rd St, Davenport, IA 52807",Davenport,"Davenport, Davenport",-90.565837,41.574459,Asian,25,Dollar($),No,No,No,No,2,4.9,Dark Green,Excellent,474,zomato
237,Chick-fil-A,216,Davenport,"320 W Kimberly Rd, Davenport, IA 52806",Davenport,"Davenport, Davenport",-90.5716,41.5604,Fast Food,10,Dollar($),No,No,No,No,1,3.9,Yellow,Good,125,zomato
238,Duck City Bistro,216,Davenport,"115 E 3rd St, Davenport, IA 52801",Davenport,"Davenport, Davenport",-90.5737,41.5223,"American, French",70,Dollar($),No,No,No,No,4,3.7,Yellow,Good,201,zomato
239,Frick's Tap,216,Davenport,"1402 W 3rd Street, IA 52802",Davenport,"Davenport, Davenport",-90.594665,41.522536,"American, Bar Food, BBQ",25,Dollar($),No,No,No,No,2,0,White,Not rated,2,zomato
240,Los Agaves,216,Davenport,"4882 Utica Ridge Rd, Davenport, IA 52807",Davenport,"Davenport, Davenport",-90.515431,41.570943,Mexican,25,Dollar($),No,No,No,No,2,0,White,Not rated,3,zomato
241,Azteca,216,Davenport,"4811 N Brady St Ste 3, Davenport, IA 52806",Davenport,"Davenport, Davenport",-90.5683,41.5699,Mexican,0,Dollar($),No,No,No,No,1,4.3,Green,Very Good,167,zomato
242,China Cafe,216,Davenport,"3018 E 53rd St, Davenport, IA 52807",Davenport,"Davenport, Davenport",-90.5321,41.5749,Chinese,25,Dollar($),No,No,No,No,2,4,Green,Very Good,112,zomato
243,Exotic Thai Restaurant,216,Davenport,"2303 E 53rd St, Davenport, IA 52807",Davenport,"Davenport, Davenport",-90.5432,41.5747,Thai,25,Dollar($),No,No,No,No,2,4.1,Green,Very Good,256,zomato
244,Front Street Brewery,216,Davenport,"208 E River Dr, Davenport, IA 52801",Davenport,"Davenport, Davenport",-90.572418,41.520389,American,10,Dollar($),No,No,No,No,1,4.3,Green,Very Good,123,zomato
245,Granite City Food & Brewery,216,Davenport,"5270 Utica Ridge Rd, Davenport, IA 52807",Davenport,"Davenport, Davenport",-90.5137,41.5745,American,25,Dollar($),No,No,No,No,2,4,Green,Very Good,199,zomato
246,Los Agaves,216,Davenport,"3852 N Brady St, Davenport, IA 52806",Davenport,"Davenport, Davenport",-90.5686,41.559,Mexican,25,Dollar($),No,No,No,No,2,4.1,Green,Very Good,157,zomato
247,Machine Shed Restaurant,216,Davenport,"7250 Northwest Blvd, Davenport, IA 52806",Davenport,"Davenport, Davenport",-90.6136,41.5944,American,25,Dollar($),No,No,No,No,2,4.1,Green,Very Good,100,zomato
248,Osaka,216,Davenport,"4901 Utica Ridge Rd, Davenport, IA 52807",Davenport,"Davenport, Davenport",-90.515175,41.570997,"Japanese, Sushi",40,Dollar($),No,No,No,No,3,4.2,Green,Very Good,141,zomato
249,Texas Roadhouse,216,Davenport,"4005 E 53rd Street, Davenport, IA 52807",Davenport,"Davenport, Davenport",-90.517,41.5747,"American, BBQ, Steak",25,Dollar($),No,No,No,No,2,4.2,Green,Very Good,197,zomato
250,Hickory Park,216,Des Moines,"1404 S Duff Ave, Ames, IA 50010",Ames,"Ames, Des Moines",-93.610084,42.010254,"BBQ, Burger, Desserts",25,Dollar($),No,No,No,No,2,4.5,Dark Green,Excellent,1025,zomato
251,The Cafe,216,Des Moines,"2616 Northridge Pkwy, Ames, IA 50010",Ames,"Ames, Des Moines",-93.643094,42.048779,"American, Coffee and Tea",25,Dollar($),No,No,No,No,2,4.9,Dark Green,Excellent,570,zomato
252,Flying Mango,216,Des Moines,"4345 Hickman Rd, Des Moines, IA 50310",Beaverdale,"Beaverdale, Des Moines",-93.677638,41.614965,"BBQ, Caribbean, Cajun",40,Dollar($),No,No,No,No,3,4.5,Dark Green,Excellent,674,zomato
253,Cool Basil,216,Des Moines,"8801 University Ave, Clive, IA 50325",Clive,"Clive, Des Moines",-93.739573,41.600564,"Asian, Sushi, Thai",25,Dollar($),No,No,No,No,2,4.1,Green,Very Good,496,zomato
254,HuHot Mongolian Grill,216,Des Moines,"4100 University Avenue, West Des Moines, IA 50266",Clive,"Clive, Des Moines",-93.760027,41.60028,"Asian, Chinese",25,Dollar($),No,No,No,No,2,4,Green,Very Good,411,zomato
255,Malo,216,Des Moines,"900 Mulberry Street, Des Moines, IA 50309",Downtown,"Downtown, Des Moines",-93.627896,41.583309,"Latin American, Mexican",25,Dollar($),No,No,No,No,2,3.2,Orange,Average,113,zomato
256,Centro,216,Des Moines,"1007 Locust St, Des Moines, IA 50309",Downtown,"Downtown, Des Moines",-93.63008,41.585743,"Italian, Pizza",40,Dollar($),No,No,No,No,3,4.5,Dark Green,Excellent,1109,zomato
257,Fong's Pizza,216,Des Moines,"223 4th Street, Des Moines, IA 50309",Downtown,"Downtown, Des Moines",-93.621631,41.585465,"Chinese, Pizza",25,Dollar($),No,No,No,No,2,4.6,Dark Green,Excellent,728,zomato
258,A Dong Restaurant,216,Des Moines,"1511 High Street, Des Moines, IA 50309",Downtown,"Downtown, Des Moines",-93.637401,41.587219,"Asian, Vegetarian, Vietnamese, Bubble Tea",10,Dollar($),No,No,No,No,1,4.4,Green,Very Good,659,zomato
259,Court Avenue Brewing Company,216,Des Moines,"309 Court Ave, Des Moines, IA 50309",Downtown,"Downtown, Des Moines",-93.620726,41.58536,"American, Pizza, Bar Food",40,Dollar($),No,No,No,No,3,4.2,Green,Very Good,370,zomato
260,Django,216,Des Moines,"210 10th Street, Des Moines, IA 50309",Downtown,"Downtown, Des Moines",-93.629436,41.584027,French,40,Dollar($),No,No,No,No,3,4.3,Green,Very Good,532,zomato
261,Miyabi 9,216,Des Moines,"512 E Grand Ave, Des Moines, IA 50309",East Village,"East Village, Des Moines",-93.611366,41.590819,"Japanese, Sushi",25,Dollar($),No,No,No,No,2,4.8,Dark Green,Excellent,860,zomato
262,Zombie Burger + Drink Lab,216,Des Moines,"300 E. Grand Ave., Des Moines, IA 50309",East Village,"East Village, Des Moines",-93.61474,41.590106,"Burger, Desserts, Vegetarian",10,Dollar($),No,No,No,No,1,4.2,Green,Very Good,943,zomato
263,Tursi's Latin King,216,Des Moines,"2200 Hubbell Ave, Des Moines, IA 50317",Fairground,"Fairground, Des Moines",-93.577383,41.601415,"American, Italian",70,Dollar($),No,No,No,No,4,4.1,Green,Very Good,476,zomato
264,Tsing Tsao South,216,Des Moines,"4230 Fleur Dr, Des Moines, IA 50321",Greater South Side,"Greater South Side, Des Moines",-93.645245,41.545869,Chinese,10,Dollar($),No,No,No,No,1,4.1,Green,Very Good,218,zomato
265,Bandit Burrito,216,Des Moines,"5340 Merle Hay Road, Johnston, IA 50131",Johnston,"Johnston, Des Moines",-93.697677,41.671465,"Breakfast, Mexican, Southwestern",10,Dollar($),No,No,No,No,1,4,Green,Very Good,214,zomato
266,Jethro's BBQ,216,Des Moines,"3100 Forest Ave, Des Moines, IA 50311",Kingman Place Historic District,"Kingman Place Historic District, Des Moines",-93.659797,41.603901,"American, BBQ",25,Dollar($),No,No,No,No,2,4.3,Green,Very Good,699,zomato
267,The Machine Shed Restaurant,216,Des Moines,"11151 Hickman Road, Urbandale, IA 50322",Urbandale,"Urbandale, Des Moines",-93.772033,41.615083,"American, Breakfast",25,Dollar($),No,No,No,No,2,3.8,Yellow,Good,308,zomato
268,Mi Patria,216,Des Moines,"1410 22nd St., West Des Moines, IA 50266",West Des Moines,"West Des Moines, Des Moines",-93.73624,41.594039,Latin American,25,Dollar($),No,No,No,No,2,4,Green,Very Good,157,zomato
269,Waterfront Seafood Market,216,Des Moines,"2900 University Ave, West Des Moines, IA 50266",West Des Moines,"West Des Moines, Des Moines",-93.744198,41.599177,"Seafood, Sushi",40,Dollar($),No,No,No,No,3,4.2,Green,Very Good,530,zomato
270,The Giggling Goat,14,Dicky Beach,"14 Beerburrum St, Dicky Beach, QLD",Dicky Beach,"Dicky Beach, Dicky Beach",153.137401,-26.783576,"Coffee and Tea, Tea, Modern Australian",7,Dollar($),No,No,No,No,1,3.6,Yellow,Good,29,zomato
271,Burnt Toast Cafe,216,Dubuque,"1220 Iowa St, Dubuque, IA 52001",Dubuque,"Dubuque, Dubuque",-90.667668,42.504759,Breakfast,10,Dollar($),No,No,No,No,1,3.4,Orange,Average,33,zomato
272,Catfish Charlie's,216,Dubuque,"1630 E 16th St, Dubuque, IA 52001",Dubuque,"Dubuque, Dubuque",-90.649933,42.512472,Seafood,25,Dollar($),No,No,No,No,2,3.3,Orange,Average,40,zomato
273,Salsa's Mexican Restaurant,216,Dubuque,"1091 Main St, Dubuque, IA 52001",Dubuque,"Dubuque, Dubuque",-90.668475,42.5032,Mexican,10,Dollar($),No,No,No,No,1,3.4,Orange,Average,153,zomato
274,Tony Roma's,216,Dubuque,"350 Bell St, Dubuque, IA 52001",Dubuque,"Dubuque, Dubuque",-90.658609,42.496464,"American, BBQ, Seafood",25,Dollar($),No,No,No,No,2,3.3,Orange,Average,65,zomato
275,Vinny Vanucchi's,216,Dubuque,"180 Main Street, Dubuque, IA 52001",Dubuque,"Dubuque, Dubuque",-90.664029,42.495689,Italian,25,Dollar($),No,No,No,No,2,3.4,Orange,Average,58,zomato
276,Champps Americana,216,Dubuque,"3100 Dodge St., Dubuque, IA 52003",Dubuque,"Dubuque, Dubuque",-90.715247,42.492018,"American, Burger, Sandwich",25,Dollar($),No,No,No,No,2,3.5,Yellow,Good,100,zomato
277,Fiesta Cancun,216,Dubuque,"2515 NW Arterial, Dubuque, IA 52002",Dubuque,"Dubuque, Dubuque",-90.740213,42.49092,Mexican,10,Dollar($),No,No,No,No,1,3.6,Yellow,Good,156,zomato
278,Happy Joe's Pizza & Ice Cream,216,Dubuque,"855 Century Dr, Dubuque, IA 52002",Dubuque,"Dubuque, Dubuque",-90.7264,42.4955,"Desserts, Pizza, Ice Cream",0,Dollar($),No,No,No,No,1,3.5,Yellow,Good,74,zomato
279,Houlihan's,216,Dubuque,"1795 Greyhound Park Rd, Dubuque, IA 52001",Dubuque,"Dubuque, Dubuque",-90.645294,42.516621,"American, Burger",25,Dollar($),No,No,No,No,2,3.6,Yellow,Good,117,zomato
280,Ichiban Hibachi Steakhouse & Sushi Bar,216,Dubuque,"3187 University Ave, Dubuque, IA 52001",Dubuque,"Dubuque, Dubuque",-90.712084,42.492963,"Japanese, Steak, Sushi",40,Dollar($),No,No,No,No,3,3.7,Yellow,Good,83,zomato
281,Kalmes Breaktime Bar & Grill,216,Dubuque,"1097 Jackson St, Dubuque, IA 52001",Dubuque,"Dubuque, Dubuque",-90.6646,42.5043,"American, Burger",25,Dollar($),No,No,No,No,2,3.6,Yellow,Good,48,zomato
282,L. May Eatery,216,Dubuque,"1072 Main St, Dubuque, IA 52001",Dubuque,"Dubuque, Dubuque",-90.668164,42.503075,"International, Pizza",40,Dollar($),No,No,No,No,3,3.8,Yellow,Good,198,zomato
283,Los Aztecas,216,Dubuque,"2700 Dodge St, Dubuque, IA 52003",Dubuque,"Dubuque, Dubuque",-90.7055,42.4916,Mexican,10,Dollar($),No,No,No,No,1,3.5,Yellow,Good,126,zomato
284,Manna Java World Cafe,216,Dubuque,"700 Locust St, Dubuque, IA 52001",Dubuque,"Dubuque, Dubuque",-90.667735,42.500191,"Breakfast, Pizza",10,Dollar($),No,No,No,No,1,3.5,Yellow,Good,119,zomato
285,Mario's Italian Restaurant,216,Dubuque,"1298 Main St, Dubuque, IA 52001",Dubuque,"Dubuque, Dubuque",-90.6691,42.5048,"American, Italian",25,Dollar($),No,No,No,No,2,3.6,Yellow,Good,140,zomato
286,Pepper Sprout Incorporated,216,Dubuque,"378 Main St, Dubuque, IA 52001",Dubuque,"Dubuque, Dubuque",-90.6651,42.4974,American,40,Dollar($),No,No,No,No,3,3.6,Yellow,Good,159,zomato
287,Shot Tower Inn,216,Dubuque,"290 Locust St, Dubuque, IA 52001",Dubuque,"Dubuque, Dubuque",-90.6658,42.4963,"Italian, Pizza",25,Dollar($),No,No,No,No,2,3.6,Yellow,Good,131,zomato
288,Sunshine Family Restaurant,216,Dubuque,"401 Central Ave, Dubuque, IA 52001",Dubuque,"Dubuque, Dubuque",-90.663686,42.498279,"American, Breakfast, Burger",10,Dollar($),No,No,No,No,1,3.5,Yellow,Good,60,zomato
289,Watershed Cafe,216,Dubuque,"51 W 32nd Street, Dubuque, IA 52001",Dubuque,"Dubuque, Dubuque",-90.684882,42.527556,"American, Burger, Pizza, Cafe",25,Dollar($),No,No,No,No,2,3.7,Yellow,Good,89,zomato
290,Woodfire Grille,216,Dubuque,"301 Bell Street, Dubuque, IA 52001",Dubuque,"Dubuque, Dubuque",-90.658988,42.496378,"American, Seafood, Steak",70,Dollar($),No,No,No,No,4,3.6,Yellow,Good,72,zomato
291,The Belle General,14,East Ballina,"12 Shelly Beach Rd, East Ballina, NSW",East Ballina,"East Ballina, East Ballina",153.593331,-28.862663,Cafe,20,Dollar($),No,No,No,No,2,4.1,Green,Very Good,56,zomato
292,Jehova es Mi Pastor Tacos y Burritos,216,Fernley,"135 W. Main Street, Fernley, NV 89408",Fernley,"Fernley, Fernley",-119.252694,39.607515,Mexican,10,Dollar($),No,No,No,No,1,3.7,Yellow,Good,83,zomato
293,Flaxton Gardens,14,Flaxton,"313 Flaxton Drive, Flaxton, QLD",Flaxton,"Flaxton, Flaxton",152.877147,-26.652133,"Tea, Modern Australian",30,Dollar($),No,No,No,No,3,3.5,Yellow,Good,37,zomato
294,Bespoke Harvest,14,Forrest,"16 Grant St, Forrest, VIC",Forrest,"Forrest, Forrest",143.714315,-38.517292,"Cafe, Australian",20,Dollar($),No,No,No,No,2,3.7,Yellow,Good,29,zomato
295,Houndstooth Grill & Tavern,216,Gainesville,"6323 Grand Hickory Dr Ste 200A, Braselton, GA 30517",Braselton,"Braselton, Gainesville",-83.8461,34.0901,"American, Sandwich, Seafood",25,Dollar($),No,No,No,No,2,4.4,Green,Very Good,239,zomato
296,Hawg Wild BBQ & Catfish House,216,Gainesville,"515 Grant Street, Clarkesville, GA 30523",Clarkesville,"Clarkesville, Gainesville",-83.520693,34.61802,"BBQ, Burger, Seafood",10,Dollar($),No,No,No,No,1,4.1,Green,Very Good,235,zomato
297,Bourbon Street Grille,216,Gainesville,"90 Public Sq N, Dahlonega, GA 30533",Dahlonega,"Dahlonega, Gainesville",-83.985353,34.532973,"American, Burger, Cajun",25,Dollar($),No,No,No,No,2,3.8,Yellow,Good,88,zomato
298,Corkscrew Cafe,216,Gainesville,"51 W Main St, Dahlonega, GA 30533",Dahlonega,"Dahlonega, Gainesville",-83.9858,34.5318,,40,Dollar($),No,No,No,No,3,3.9,Yellow,Good,209,zomato
299,Smokin Gold BBQ,216,Gainesville,"59 E Main St, Dahlonega, GA 30533",Dahlonega,"Dahlonega, Gainesville",-83.983939,34.533626,BBQ,10,Dollar($),No,No,No,No,1,3.9,Yellow,Good,133,zomato
300,Hoka-Hoka Japanese Steak & Sushi,216,Gainesville,"617 North Grove Street, Dahlonega, GA 30533",Dahlonega,"Dahlonega, Gainesville",-83.989317,34.541044,"Chinese, Japanese, Thai",10,Dollar($),No,No,No,No,1,4.4,Green,Very Good,267,zomato
301,Shenanigan's Irish Pub,216,Gainesville,"87 N. Chestatee St., Dahlonega, GA 30533",Dahlonega,"Dahlonega, Gainesville",-83.986119,34.533198,"Bar Food, Seafood, Vegetarian",25,Dollar($),No,No,No,No,2,4.1,Green,Very Good,171,zomato
302,Fish Tales Lakeside Grille,216,Gainesville,"6330 Mitchell Street, Flowery Branch, GA 30542",Flowery Branch,"Flowery Branch, Gainesville",-83.938024,34.183573,Seafood,25,Dollar($),No,No,No,No,2,3.8,Yellow,Good,107,zomato
303,Antebellum,216,Gainesville,"5510 Church Street, Flowery Branch, GA 30542",Flowery Branch,"Flowery Branch, Gainesville",-83.926217,34.185707,"American, Southern",40,Dollar($),No,No,No,No,3,4.3,Green,Very Good,164,zomato
304,Moonie's Texas Barbecue,216,Gainesville,"5545 Atlanta Highway, Flowery Branch, GA 30542",Flowery Branch,"Flowery Branch, Gainesville",-83.927794,34.180043,"BBQ, Sandwich",10,Dollar($),No,No,No,No,1,4.1,Green,Very Good,182,zomato
305,Atlanta Highway Seafood Market,216,Gainesville,"227 Atlanta Highway Suite 900, Gainesville, GA 30501",Gainesville,"Gainesville, Gainesville",-83.838457,34.285102,"Sandwich, Seafood, Cajun",25,Dollar($),No,No,No,No,2,4.9,Dark Green,Excellent,681,zomato
306,Eat at Thai,216,Gainesville,"975 Dawsonville Hwy, Gainesville, GA 30501",Gainesville,"Gainesville, Gainesville",-83.857993,34.300182,Thai,10,Dollar($),No,No,No,No,1,4.6,Dark Green,Excellent,357,zomato
307,Smoke House BBQ and Catering,216,Gainesville,"3205 Atlanta Hwy, Atlanta Highway, Gainesville, GA, Gainesville, GA 30507",Gainesville,"Gainesville, Gainesville",-83.860098,34.222755,BBQ,25,Dollar($),No,No,No,No,2,3.8,Yellow,Good,89,zomato
308,2 Dog,216,Gainesville,"317 Spring St SE, Gainesville, GA 30501",Gainesville,"Gainesville, Gainesville",-83.824023,34.300567,"American, European, Sandwich",25,Dollar($),No,No,No,No,2,4.2,Green,Very Good,350,zomato
309,Longstreet Cafe,216,Gainesville,"1043 Riverside Terrace, Gainesville, GA 30501",Gainesville,"Gainesville, Gainesville",-83.8272,34.3166,Southern,10,Dollar($),No,No,No,No,1,4.3,Green,Very Good,298,zomato
310,Re-Cess,216,Gainesville,"118 Bradford St NE, Gainesville, GA 30501",Gainesville,"Gainesville, Gainesville",-83.82686,34.300332,"American, Southern",25,Dollar($),No,No,No,No,2,4.2,Green,Very Good,319,zomato
311,Bodensee,216,Gainesville,"64 Munich Strasse, Helen, GA 30545",Helen,"Helen, Gainesville",-83.727741,34.701594,German,40,Dollar($),No,No,No,No,3,3.8,Yellow,Good,114,zomato
312,Hofer's Bakery & Cafe,216,Gainesville,"8758 N Main St, Helen, GA 30545",Helen,"Helen, Gainesville",-83.7345,34.7024,"German, Ice Cream",10,Dollar($),No,No,No,No,1,3.9,Yellow,Good,136,zomato
313,Troll Tavern,216,Gainesville,"8590 N Main St Ste B, Helen, GA 30545",Helen,"Helen, Gainesville",-83.7334,34.7021,"Burger, German, Sandwich",25,Dollar($),No,No,No,No,2,2.2,Red,Poor,108,zomato
314,The Nacoochee Village Tavern & Pizzeria,216,Gainesville,"7275 S Main St., Helen, GA 30545",Helen,"Helen, Gainesville",-83.713498,34.691208,"Italian, Pizza, Sandwich",10,Dollar($),No,No,No,No,1,4,Green,Very Good,161,zomato
315,Blue Bean Love Cafe,14,Hepburn Springs,"115 Main Rd, Hepburn Springs, Hepburn Springs, VIC",Hepburn Springs,"Hepburn Springs, Hepburn Springs",144.138701,-37.312327,"Cafe, Coffee and Tea, Modern Australian",20,Dollar($),No,No,No,No,2,3.8,Yellow,Good,192,zomato
316,La Trattoria of Lavandula,14,Hepburn Springs,"350 Hepburn-Newstead Road, Hepburn Springs, VIC",Hepburn Springs,"Hepburn Springs, Hepburn Springs",144.110062,-37.275494,"Italian, Fusion, Cafe",7,Dollar($),No,No,No,No,1,3.8,Yellow,Good,93,zomato
317,5 Little Pigs,14,Huskisson,"64 Owen St, Huskisson, NSW",Huskisson,"Huskisson, Huskisson",150.671074,-35.03887,"Breakfast, Modern Australian",20,Dollar($),No,No,No,No,2,4.1,Green,Very Good,40,zomato
318,Beach Box Cafe,14,Inverloch,"6a Ramsay Blvd, Inverloch, VIC",Inverloch,"Inverloch, Inverloch",145.728713,-38.634746,"Burger, Coffee and Tea, Modern Australian",7,Dollar($),No,No,No,No,1,3.7,Yellow,Good,100,zomato
319,Funkey Monkey,14,Lakes Entrance,"26 Myer street, Lakes Entrance, VIC",Lakes Entrance,"Lakes Entrance, Lakes Entrance",147.994225,-37.878387,"Breakfast, Coffee and Tea",7,Dollar($),No,No,No,No,1,3.8,Yellow,Good,97,zomato
320,Burger Queen Drive In,216,Lakeview,"109 S F St, Lakeview, OR 97630",Lakeview,"Lakeview, Lakeview",-120.3458,42.1885,"Burger, Desserts, Sandwich",10,Dollar($),No,No,No,No,1,3.6,Yellow,Good,41,zomato
321,Blue Orchid Thai Restaurant,216,Lincoln,"129 N 10th St, Lincoln, NE 68508",Haymarket,"Haymarket, Lincoln",-96.7072,40.8143,Thai,25,Dollar($),No,No,No,No,2,4.5,Dark Green,Excellent,799,zomato
322,Stillwater on Belmore,14,Lorn,"27 Belmore Rd,, Lorn, NSW",Lorn,"Lorn, Lorn",151.558475,-32.728097,"Breakfast, Coffee and Tea",20,Dollar($),No,No,No,No,2,3.6,Yellow,Good,18,zomato
323,Mr.,14,Macedon,"23 Victoria St, Macedon, VIC",Macedon,"Macedon, Macedon",144.564174,-37.423189,Cafe,20,Dollar($),No,No,No,No,2,3.5,Yellow,Good,31,zomato
324,Emilio's Cuban Cafe,216,Macon,"402 Ga. Highway 247, Bonaire, GA 31005",Bonaire,"Bonaire, Macon",-83.594494,32.567741,"Coffee and Tea, Cuban, Latin American",25,Dollar($),No,No,No,No,2,3.9,Yellow,Good,146,zomato
325,Ingleside Village Pizza,216,Macon,"2395 Ingleside Ave, Macon, GA 31204",Macon,"Macon, Macon",-83.657061,32.853896,"Pizza, Sandwich",10,Dollar($),No,No,No,No,1,4.9,Dark Green,Excellent,478,zomato
326,Jim Shaw's Seafood Grill & Bar,216,Macon,"3040 Vineville Ave, Macon, GA 31204",Macon,"Macon, Macon",-83.6737,32.8496,Seafood,25,Dollar($),No,No,No,No,2,4.6,Dark Green,Excellent,467,zomato
327,Mandarin Chinese Restaurant,216,Macon,"3086 Riverside Dr, Macon, GA 31210",Macon,"Macon, Macon",-83.6766,32.8899,"Chinese, Thai",25,Dollar($),No,No,No,No,2,4.5,Dark Green,Excellent,302,zomato
328,Rookery,216,Macon,"543 Cherry St, Macon, GA 31201",Macon,"Macon, Macon",-83.6279,32.8361,"Burger, Desserts, Bar Food",25,Dollar($),No,No,No,No,2,4.5,Dark Green,Excellent,289,zomato
329,Dovetail,216,Macon,"543 Cherry St, Macon, GA 31201",Macon,"Macon, Macon",-83.627979,32.83641,,40,Dollar($),No,No,No,No,3,3.8,Yellow,Good,102,zomato
330,Bonefish Grill,216,Macon,"5080 Riverside Dr, Macon, GA 31210",Macon,"Macon, Macon",-83.713978,32.929278,"American, Seafood",40,Dollar($),No,No,No,No,3,4.1,Green,Very Good,293,zomato
331,Downtown Grill,216,Macon,"562 Mulberry St, Macon, GA 31201",Macon,"Macon, Macon",-83.6276,32.8375,Steak,70,Dollar($),No,No,No,No,4,4,Green,Very Good,195,zomato
332,Greek Corner Deli,216,Macon,"587 Cherry St, Macon, GA 31201",Macon,"Macon, Macon",-83.628703,32.83654,"Desserts, Greek, Sandwich",10,Dollar($),No,No,No,No,1,4.3,Green,Very Good,244,zomato
333,Natalia's,216,Macon,"201 North Macon St., Macon, GA 31210",Macon,"Macon, Macon",-83.787993,32.928495,"European, Italian, Mediterranean",70,Dollar($),No,No,No,No,4,4.2,Green,Very Good,379,zomato
334,Papouli's Mediterranean Cafe & Market,216,Macon,"121 Tom Hill Sr Blvd, Macon, GA 31210",Macon,"Macon, Macon",-83.6873,32.901,"Greek, Mediterranean, Vegetarian",10,Dollar($),No,No,No,No,1,4.2,Green,Very Good,223,zomato
335,Benson's Steak and Sushi,216,Macon,"1289 S Houston Lake Rd, Warner Robins, GA 31088",Warner Robins,"Warner Robins, Macon",-83.662421,32.556873,"American, Chinese, Sushi",25,Dollar($),No,No,No,No,2,3.7,Yellow,Good,243,zomato
336,My Fathers Place,216,Macon,"2507 Moody Rd, Warner Robins, GA 31088",Warner Robins,"Warner Robins, Macon",-83.624,32.5786,Italian,25,Dollar($),No,No,No,No,2,3.7,Yellow,Good,104,zomato
337,Sushi Thai Restaurant,216,Macon,"2624 Watson Blvd Ste D, Warner Robins, GA 31093",Warner Robins,"Warner Robins, Macon",-83.6665,32.6184,"Japanese, Sushi, Thai",10,Dollar($),No,No,No,No,1,3.7,Yellow,Good,153,zomato
338,The Mellow Mushroom,216,Macon,"710 Lake Joy Road, Warner Robins, GA 31088",Warner Robins,"Warner Robins, Macon",-83.691044,32.552684,"Pizza, Sandwich, Vegetarian",25,Dollar($),No,No,No,No,2,3.8,Yellow,Good,323,zomato
339,El Jalisciense Mexican Restaurant,216,Macon,"1224 Russell Pkwy, Warner Robins, GA 31088",Warner Robins,"Warner Robins, Macon",-83.64935,32.594666,Mexican,10,Dollar($),No,No,No,No,1,4.1,Green,Very Good,181,zomato
340,Greek Village,216,Macon,"1801 Watson Blvd, Warner Robins, GA 31093",Warner Robins,"Warner Robins, Macon",-83.636618,32.617684,"American, Greek, Seafood",25,Dollar($),No,No,No,No,2,4,Green,Very Good,316,zomato
341,Martin's BBQ,216,Macon,"102 S Armed Forces Boulevard, Warner Robins, GA 31088",Warner Robins,"Warner Robins, Macon",-83.600201,32.619321,BBQ,25,Dollar($),No,No,No,No,2,4.2,Green,Very Good,288,zomato
342,Thai Pepper,216,Macon,"1806 Russell Parkway, Warner Robins, GA 31088",Warner Robins,"Warner Robins, Macon",-83.665557,32.593264,"Japanese, Sushi, Thai",10,Dollar($),No,No,No,No,1,4,Green,Very Good,232,zomato
343,Zen Japanese Steakhouse and Sushi Bar,216,Macon,"4086 Watson Blvd, Warner Robins, GA 31093",Warner Robins,"Warner Robins, Macon",-83.7184,32.6147,"Japanese, Steak, Sushi",40,Dollar($),No,No,No,No,3,4.1,Green,Very Good,314,zomato
344,Star Buffet,14,Mayfield,"58 Hanbury St, Mayfield, NSW",Mayfield,"Mayfield, Mayfield",151.734383,-32.899178,Asian,20,Dollar($),No,No,No,No,2,2.9,Orange,Average,11,zomato
345,Triangle Restaurant,216,Mc Millan,"21053 State Hwy M28, Mc Millan, MI 49853",Mc Millan,"Mc Millan, Mc Millan",-85.7363,46.3718,"Breakfast, Burger",10,Dollar($),No,No,No,No,1,2.4,Red,Poor,17,zomato
346,Three Anchors,14,Middleton Beach,"2 Flinders Pde, Middleton Beach, WA",Middleton Beach,"Middleton Beach, Middleton Beach",117.917166,-35.025861,"Bar Food, Modern Australian",30,Dollar($),No,No,No,No,3,3.8,Yellow,Good,176,zomato
347,HI Lite Bar & Lounge,216,Miller,"109 N Broadway Ave, Miller, SD 57362",Miller,"Miller, Miller",-98.9891,44.5158,,0,Dollar($),No,No,No,No,1,3.4,Orange,Average,11,zomato
348,Vince's Restaurant & Pizzeria,216,Monroe,"619 4th Ave, Monroe, WI 53566",Monroe,"Monroe, Monroe",-89.653487,42.606306,"Italian, Pizza",25,Dollar($),No,No,No,No,2,3.6,Yellow,Good,65,zomato
349,Poets Cafe,14,Montville,"167 Main St, Montville, QLD",Montville,"Montville, Montville",152.893735,-26.690462,"Coffee and Tea, Modern Australian",30,Dollar($),No,No,No,No,3,2.4,Red,Poor,193,zomato
350,The Artesian Restaurant,216,Ojo Caliente,"Ojo Caliente Mineral Springs Resort And Spa 50 Los Banos Rd, Ojo Caliente, NM 87549",Ojo Caliente,"Ojo Caliente, Ojo Caliente",-106.057666,36.313638,"American, International, Southwestern",40,Dollar($),No,No,No,No,3,3.6,Yellow,Good,30,zomato
351,CevÕ_che Tapas Bar & Restaurant,216,Orlando,"125 West Church Street, Orlando, FL 32801",Church Street District,"Church Street District, Orlando",-81.381077,28.540432,"Spanish, Tapas",40,Dollar($),No,No,No,No,3,4.4,Green,Very Good,981,zomato
352,'Ohana,216,Orlando,"1600 Seven Seas Drive, Lake Buena Vista, FL 32830",Disney World Area,"Disney World Area, Orlando",-81.585226,28.405437,Hawaiian,45,Dollar($),No,No,No,No,3,4.5,Dark Green,Excellent,1151,zomato
353,Earl of Sandwich,216,Orlando,"1750 E Buena Vista Drive, Lake Buena Vista, FL 32830",Disney: Downtown Disney,"Disney: Downtown Disney, Orlando",-81.514608,28.372858,"American, Sandwich, Salad",35,Dollar($),No,No,No,No,3,4.7,Dark Green,Excellent,1341,zomato
354,Raglan Road Irish Pub and Restaurant,216,Orlando,"1640 E Buena Vista Drive, Lake Buena Vista, FL 32830",Disney: Downtown Disney,"Disney: Downtown Disney, Orlando",-81.517725,28.371338,Irish,50,Dollar($),No,No,No,No,4,4.3,Green,Very Good,782,zomato
355,CafÕ© Tu Tu Tango,216,Orlando,"8625 International Drive, Orlando, FL 32819",I-Drive/Universal,"I-Drive/Universal, Orlando",-81.469986,28.440344,"New American, Tapas",40,Dollar($),No,No,No,No,3,4.6,Dark Green,Excellent,1293,zomato
356,Texas de Brazil,216,Orlando,"5259 International Drive, Orlando, FL 32819",I-Drive/Universal,"I-Drive/Universal, Orlando",-81.451073,28.467681,"Brazilian, Steak",100,Dollar($),No,No,No,No,4,4.6,Dark Green,Excellent,2324,zomato
357,Bahama Breeze Island Grille,216,Orlando,"8849 International Drive, Orlando, FL 32819",I-Drive/Universal,"I-Drive/Universal, Orlando",-81.471526,28.437065,Caribbean,45,Dollar($),No,No,No,No,3,4.3,Green,Very Good,910,zomato
358,Maggiano's Little Italy,216,Orlando,"9101 International Drive,Orlando, FL 32819",I-Drive/Universal,"I-Drive/Universal, Orlando",-81.471447,28.433235,Italian,50,Dollar($),No,No,No,No,4,4.4,Green,Very Good,886,zomato
359,Hawkers Asian Street Fare,216,Orlando,"1103 N Mills Avenue, Orlando, FL 32803",Mills 50,"Mills 50, Orlando",-81.364347,28.560505,"Asian, Thai",35,Dollar($),No,No,No,No,3,4.6,Dark Green,Excellent,1293,zomato
360,Tako Cheena by Pom Pom,216,Orlando,"932 North Mills Avenue, Orlando, FL 32803",Mills 50,"Mills 50, Orlando",-81.364547,28.557845,"Asian, Latin American, Vegetarian",10,Dollar($),No,No,No,No,1,4.4,Green,Very Good,570,zomato
361,Seasons 52 Fresh Grill,216,Orlando,"7700 West Sand Lake Road, Orlando, FL 32819",Restaurant Row,"Restaurant Row, Orlando",-81.487978,28.448175,American,60,Dollar($),No,No,No,No,4,4.4,Green,Very Good,1685,zomato
362,Hollerbach's Willow Tree CafÕ©,216,Orlando,"205 East 1st Street, Sanford, FL 32771",Sanford,"Sanford, Orlando",-81.266871,28.811653,German,40,Dollar($),No,No,No,No,3,4.8,Dark Green,Excellent,1699,zomato
363,Pom Pom's Teahouse and Sandwicheria,216,Orlando,"67 North Bumby Avenue, Orlando, FL 32803",The Milk District,"The Milk District, Orlando",-81.351467,28.543571,"American, Sandwich, Tea",25,Dollar($),No,No,No,No,2,4.9,Dark Green,Excellent,1457,zomato
364,Yellow Dog Eats,216,Orlando,"1236 Hempel Avenue,Gotha, FL 34786",Windermere,"Windermere, Orlando",-81.522987,28.527592,"American, BBQ, Sandwich",35,Dollar($),No,No,No,No,3,4.9,Dark Green,Excellent,1252,zomato
365,Tibby's New Orleans Kitchen,216,Orlando,"2203 Aloma Avenue, Winter Park, FL 32792",Winter Park,"Winter Park, Orlando",-81.322631,28.601088,Cajun,25,Dollar($),No,No,No,No,2,4.7,Dark Green,Excellent,1412,zomato
366,The Coop,216,Orlando,"610 W Morse Boulevard, Winter Park, FL 32789",Winter Park,"Winter Park, Orlando",-81.357219,28.597366,"Southern, Cajun, Soul Food",25,Dollar($),No,No,No,No,2,3.6,Yellow,Good,432,zomato
367,Bosphorous Turkish Cuisine,216,Orlando,"108 S Park Ave, Winter Park, FL 32789",Winter Park,"Winter Park, Orlando",-81.350834,28.597627,"Mediterranean, Turkish",40,Dollar($),No,No,No,No,3,4.2,Green,Very Good,568,zomato
368,Ethos Vegan Kitchen,216,Orlando,"601-B South New York Avenue, Winter Park, FL 32789",Winter Park,"Winter Park, Orlando",-81.352921,28.592857,"American, Breakfast, Vegetarian",25,Dollar($),No,No,No,No,2,4.4,Green,Very Good,797,zomato
369,Hillstone,216,Orlando,"215 South Orlando Avenue, Winter Park, FL 32789",Winter Park,"Winter Park, Orlando",-81.36526,28.596682,,40,Dollar($),No,No,No,No,3,4.4,Green,Very Good,1158,zomato
370,The Ravenous Pig,216,Orlando,"565 W Fairbanks Avenue, Winter Park, FL 32789",Winter Park,"Winter Park, Orlando",-81.356024,28.593297,Pub Food,40,Dollar($),No,No,No,No,3,4.4,Green,Very Good,1998,zomato
371,Vivo Bar and Grill,14,Palm Cove,"49 Williams Esplanade, Palm Cove, QLD",Palm Cove,"Palm Cove, Palm Cove",145.670768,-16.748083,"Mediterranean, Seafood",30,Dollar($),No,No,No,No,3,4.4,Green,Very Good,381,zomato
372,Pier 70,14,Paynesville,"70 The Esplanade, Paynesville",Paynesville,"Paynesville, Paynesville",147.722783,-37.919415,Modern Australian,120,Dollar($),No,No,No,No,4,2.6,Orange,Average,16,zomato
373,DiVine,14,Penola,"39 Church St, Penola, SA",Penola,"Penola, Penola",140.837409,-37.379153,"Cafe, Coffee and Tea, Sandwich",20,Dollar($),No,No,No,No,2,3.4,Orange,Average,19,zomato
374,Cactus Flower Cafe Navarre,216,Pensacola,"8725 Ortega Park Dr, Navarre, FL 32566",Navarre,"Navarre, Pensacola",-86.857339,30.402598,"Mexican, Southwestern, Tex-Mex",25,Dollar($),No,No,No,No,2,4.2,Green,Very Good,635,zomato
375,McGuire's Irish Pub & Brewery,216,Pensacola,"600 E Gregory Street, Pensacola, FL 32502",Pensacola,"Pensacola, Pensacola",-87.2027,30.4179,"Burger, Bar Food, Steak",40,Dollar($),No,No,No,No,3,4.9,Dark Green,Excellent,2238,zomato
376,New Yorker Deli & Pizzeria,216,Pensacola,"3001 E Cervantes St, Pensacola, FL 32503",Pensacola,"Pensacola, Pensacola",-87.1819,30.4251,"Italian, Pizza, Sandwich",10,Dollar($),No,No,No,No,1,4.6,Dark Green,Excellent,792,zomato
377,Tu-Do Vietnamese Restaurant,216,Pensacola,"7130 N Davis Hwy, Pensacola, FL 32504",Pensacola,"Pensacola, Pensacola",-87.2216,30.4982,"Asian, Vietnamese",10,Dollar($),No,No,No,No,1,4.5,Dark Green,Excellent,828,zomato
378,Carrabba's Italian Grill,216,Pensacola,"311 N 9th Avenue, Pensacola, FL 32502",Pensacola,"Pensacola, Pensacola",-87.205855,30.417318,"Italian, Pizza, Seafood",40,Dollar($),No,No,No,No,3,3.7,Yellow,Good,292,zomato
379,Jaco's Bayfront Bar and Grille,216,Pensacola,"997 South Palafox, Pensacola, FL 32502",Pensacola,"Pensacola, Pensacola",-87.213274,30.403034,Tapas,25,Dollar($),No,No,No,No,2,3.9,Yellow,Good,502,zomato
380,The Tin Cow,216,Pensacola,"102 S Palafox Pl, Pensacola, FL",Pensacola,"Pensacola, Pensacola",-87.215087,30.411611,"Burger, Bar Food",25,Dollar($),No,No,No,No,2,3.7,Yellow,Good,559,zomato
381,Cactus Flower Cafe,216,Pensacola,"3425 N 12th Ave, Pensacola, FL 32503",Pensacola,"Pensacola, Pensacola",-87.208093,30.447332,"Latin American, Mexican, Southwestern",25,Dollar($),No,No,No,No,2,4.2,Green,Very Good,1268,zomato
382,Dharma Blue,216,Pensacola,"300 S Alcaniz Street, Pensacola, FL 32502",Pensacola,"Pensacola, Pensacola",-87.2092,30.4101,"Seafood, Sushi",40,Dollar($),No,No,No,No,3,4.1,Green,Very Good,669,zomato
383,Global Grill,216,Pensacola,"27 South Palafox Pl, Pensacola, FL 32501",Pensacola,"Pensacola, Pensacola",-87.215305,30.411878,"European, International, Tapas",40,Dollar($),No,No,No,No,3,4.4,Green,Very Good,900,zomato
384,Ichiban,216,Pensacola,"5555 N Davis Hwy Ste I, Pensacola, FL 32503",Pensacola,"Pensacola, Pensacola",-87.2252,30.4767,"Japanese, Sushi",25,Dollar($),No,No,No,No,2,4.3,Green,Very Good,765,zomato
385,The Fish House,216,Pensacola,"600 S Barracks St, Pensacola, FL 32502",Pensacola,"Pensacola, Pensacola",-87.211082,30.407358,"American, Seafood, Sushi",40,Dollar($),No,No,No,No,3,4,Green,Very Good,1270,zomato
386,Tuscan Oven,216,Pensacola,"4801 N 9th Ave, Pensacola, FL 32503",Pensacola,"Pensacola, Pensacola",-87.214,30.4692,"Italian, Mediterranean, Pizza",25,Dollar($),No,No,No,No,2,4.1,Green,Very Good,502,zomato
387,Flounders Chowder House,216,Pensacola,"800 Quietwater Beach Rd, Pensacola Beach, FL 32561",Pensacola Beach,"Pensacola Beach, Pensacola",-87.143,30.3359,Seafood,40,Dollar($),No,No,No,No,3,3.9,Yellow,Good,724,zomato
388,Hemingway's Island Grill,216,Pensacola,"400 Quietwater Beach Rd, Pensacola Beach, FL 32561",Pensacola Beach,"Pensacola Beach, Pensacola",-87.142602,30.335521,"Caribbean, Seafood, Steak",40,Dollar($),No,No,No,No,3,3.5,Yellow,Good,479,zomato
389,Native Cafe,216,Pensacola,"45 A Via De Luna Dr, Pensacola Beach, FL 32561",Pensacola Beach,"Pensacola Beach, Pensacola",-87.132932,30.334776,"Breakfast, Burger",25,Dollar($),No,No,No,No,2,4.2,Green,Very Good,591,zomato
390,Peg Leg Pete's,216,Pensacola,"1010 Fort Pickens Rd, Pensacola Beach, FL 32561",Pensacola Beach,"Pensacola Beach, Pensacola",-87.164376,30.327864,"Burger, Sandwich, Seafood",40,Dollar($),No,No,No,No,3,4.4,Green,Very Good,1408,zomato
391,The Grand Marlin,216,Pensacola,"400 Pensacola Beach Boulevard, Pensacola Beach, FL 32561",Pensacola Beach,"Pensacola Beach, Pensacola",-87.149178,30.34262,"Caribbean, Seafood",40,Dollar($),No,No,No,No,3,4.3,Green,Very Good,905,zomato
392,Original Georgios Authentic Greek Food,216,Pensacola,"13310 Merilla Street, Pensacola, FL 32507",Perdido Key,"Perdido Key, Pensacola",-87.421896,30.319982,Greek,10,Dollar($),No,No,No,No,1,4.7,Dark Green,Excellent,816,zomato
393,Fisherman's Corner,216,Pensacola,"13486 Perdido Key Dr, Pensacola, FL 32507",Perdido Key,"Perdido Key, Pensacola",-87.427707,30.308468,"Sandwich, Seafood, Cajun",40,Dollar($),No,No,No,No,3,4.4,Green,Very Good,747,zomato
394,Mad Cowes Cafe,14,Phillip Island,"4/17 The Esplanade, Cowes, VIC",Phillip Island,"Phillip Island, Phillip Island",145.237813,-38.448307,"Breakfast, Coffee and Tea, Modern Australian",20,Dollar($),No,No,No,No,2,3.7,Yellow,Good,351,zomato
395,Rupes Burgers,216,Pocatello,"302 NE Main St, Blackfoot, ID 83221",Blackfoot,"Blackfoot, Pocatello",-112.3415,43.1903,"Burger, Fast Food",10,Dollar($),No,No,No,No,1,3.7,Yellow,Good,104,zomato
396,Texas Roadhouse,216,Pocatello,"560 Bullock Street, Pocatello, ID 83202",Chubbuck,"Chubbuck, Pocatello",-112.461326,42.910518,"American, BBQ, Steak",45,Dollar($),No,No,No,No,3,3.5,Yellow,Good,83,zomato
397,Riverwalk Cafe,216,Pocatello,"695 E Main St, Lava Hot Springs, ID 83246",Lava Hot Springs,"Lava Hot Springs, Pocatello",-112.0132,42.62,"Asian, Thai",10,Dollar($),No,No,No,No,1,3.6,Yellow,Good,91,zomato
398,Royal Hotel,216,Pocatello,"11 E Main St, Lava Hot Springs, ID 83246",Lava Hot Springs,"Lava Hot Springs, Pocatello",-112.0127,42.6192,"Pizza, Bar Food",0,Dollar($),No,No,No,No,1,3.6,Yellow,Good,59,zomato
399,Buddy's Italian Restaurant,216,Pocatello,"626 E Lewis St, Pocatello, ID 83201",Pocatello,"Pocatello, Pocatello",-112.4423,42.8661,"Italian, Pizza, Sandwich",40,Dollar($),No,No,No,No,3,3.7,Yellow,Good,222,zomato
400,Butterburrs,216,Pocatello,"917 Yellowstone Avenue, Pocatello, ID 83201",Pocatello,"Pocatello, Pocatello",-112.4516,42.8919,"American, Breakfast",30,Dollar($),No,No,No,No,3,3.6,Yellow,Good,121,zomato
401,Chang Garden,216,Pocatello,"1000 Pocatello Creek Rd Ste W2, Pocatello, ID 83201",Pocatello,"Pocatello, Pocatello",-112.441,42.8928,Chinese,10,Dollar($),No,No,No,No,1,3.5,Yellow,Good,93,zomato
402,Fifth Street Bagelry,216,Pocatello,"559 S 5TH Ave, Pocatello, ID 83201",Pocatello,"Pocatello, Pocatello",-112.4397,42.8631,"Coffee and Tea, Sandwich",10,Dollar($),No,No,No,No,1,3.8,Yellow,Good,136,zomato
403,Goody's Deli,216,Pocatello,"905 S 5th Ave, Pocatello, ID 83201",Pocatello,"Pocatello, Pocatello",-112.4365,42.8604,"Pizza, Sandwich",10,Dollar($),No,No,No,No,1,3.8,Yellow,Good,160,zomato
404,Grecian Key Restaurant,216,Pocatello,"314 N Main St, Pocatello, ID 83204",Pocatello,"Pocatello, Pocatello",-112.4524,42.8639,"American, Greek",25,Dollar($),No,No,No,No,2,3.7,Yellow,Good,152,zomato
405,Outer Limits Fun Zone,216,Pocatello,"1800 Garrett Way, Pocatello, ID 83201",Pocatello,"Pocatello, Pocatello",-112.459988,42.878077,"Burger, Pizza, Sandwich",10,Dollar($),No,No,No,No,1,3.5,Yellow,Good,57,zomato
406,Portneuf Valley Brewing,216,Pocatello,"615 South 1st Avenue, ID 83201",Pocatello,"Pocatello, Pocatello",-112.443213,42.860024,"American, Pizza",25,Dollar($),No,No,No,No,2,3.7,Yellow,Good,191,zomato
407,Sandpiper Restaurant & Lounge,216,Pocatello,"1400 Bench Rd, Pocatello, ID 83201",Pocatello,"Pocatello, Pocatello",-112.432,42.9012,"American, Seafood, Steak",40,Dollar($),No,No,No,No,3,3.6,Yellow,Good,85,zomato
408,Senor Iguanas,216,Pocatello,"961 Hiline Rd, Pocatello, ID 83201",Pocatello,"Pocatello, Pocatello",-112.4433,42.8942,Mexican,0,Dollar($),No,No,No,No,1,3.6,Yellow,Good,108,zomato
409,Sushi Family,216,Pocatello,"415 Yellowstone Ave, Pocatello, ID 83201",Pocatello,"Pocatello, Pocatello",-112.452013,42.88245,"Asian, Sushi, Vegetarian",25,Dollar($),No,No,No,No,2,3.6,Yellow,Good,132,zomato
410,Taste of India Nepal,216,Pocatello,"330 N Main Street, Pocatello, ID 83204",Pocatello,"Pocatello, Pocatello",-112.45253,42.863969,"Indian, International, Vegetarian",25,Dollar($),No,No,No,No,2,3.8,Yellow,Good,141,zomato
411,Thai Paradise,216,Pocatello,"140 S. Main, Pocatello, ID 83204",Pocatello,"Pocatello, Pocatello",-112.450106,42.861871,"Desserts, Thai",25,Dollar($),No,No,No,No,2,3.7,Yellow,Good,162,zomato
412,The Bridge,216,Pocatello,"815 S 1st Street, Pocatello, ID 83201",Pocatello,"Pocatello, Pocatello",-112.441386,42.858599,New American,40,Dollar($),No,No,No,No,3,3.6,Yellow,Good,144,zomato
413,Nosh Mahal,216,Pocatello,"303 E Alameda Road, ID 83201",Pocatello,"Pocatello, Pocatello",-112.44853,42.891174,"Indian, Persian",25,Dollar($),No,No,No,No,2,0,White,Not rated,1,zomato
414,El Herradero,216,Pocatello,"123 Jefferson Ave, Pocatello, ID 83201",Pocatello,"Pocatello, Pocatello",-112.4419,42.8774,Mexican,10,Dollar($),No,No,No,No,1,4.1,Green,Very Good,365,zomato
415,Barrett Junction Cafe,216,Potrero,"1020 Barrett Lake Rd, Dulzura, CA 91917",Potrero,"Potrero, Potrero",-116.704731,32.613431,"American, BBQ, Burger",25,Dollar($),No,No,No,No,2,3.3,Orange,Average,9,zomato
416,Blue Point Grill,216,Princeton,"258 Nassau St, Princeton, NJ 08542",Princeton,"Princeton, Princeton",-74.651139,40.352385,Seafood,70,Dollar($),No,No,No,No,4,4,Green,Very Good,542,zomato
417,Giovanni's Shrimp Truck,216,Rest of Hawaii,"56-505 Kamehameha Hwy, Kahuku, HI 96731",Kahuku,"Kahuku, Rest of Hawaii",-157.948486,21.677078,Seafood,25,Dollar($),No,No,No,No,2,4.5,Dark Green,Excellent,691,zomato
418,Kona Brewing Company,216,Rest of Hawaii,"75-5629 Kuakini Highway, Kailua Kona, HI 96740",Kailua Kona,"Kailua Kona, Rest of Hawaii",-155.997362,19.642752,"American, Pizza, Bar Food",35,Dollar($),No,No,No,No,3,4.7,Dark Green,Excellent,764,zomato
419,Leonard's Bakery,216,Rest of Hawaii,"933 Kapahulu Ave, Honolulu, HI 96816",Kaimuki,"Kaimuki, Rest of Hawaii",-157.813432,21.284586,,10,Dollar($),No,No,No,No,1,4.7,Dark Green,Excellent,707,zomato
420,Coconuts Fish Cafe,216,Rest of Hawaii,"1279 S Kihei Road, Kihei, HI 96753",Kihei,"Kihei, Rest of Hawaii",-156.455284,20.748838,Seafood,30,Dollar($),No,No,No,No,3,4.5,Dark Green,Excellent,487,zomato
421,Kihei Caffe,216,Rest of Hawaii,"1945 S Kihei Road, Kihei, HI 96753",Kihei,"Kihei, Rest of Hawaii",-156.451847,20.731487,"American, Hawaiian",10,Dollar($),No,No,No,No,1,4.5,Dark Green,Excellent,695,zomato
422,Monkeypod Kitchen by Merriman,216,Rest of Hawaii,"10 Wailea Gateway Place, Unit B-201 Kihei, Hawaii, HI 96753",Kihei,"Kihei, Rest of Hawaii",-156.430947,20.688375,Burger,40,Dollar($),No,No,No,No,3,4.2,Green,Very Good,485,zomato
423,Sansei Seafood Restaurant & Sushi Bar,216,Rest of Hawaii,"1881 S Kihei Rd, Kihei, HI 96753",Kihei,"Kihei, Rest of Hawaii",-156.452556,20.733554,"Japanese, Seafood, Sushi",40,Dollar($),No,No,No,No,3,4.2,Green,Very Good,807,zomato
424,Star Noodle,216,Rest of Hawaii,"286 Kupuohi St, Lahaina, HI 96761",Lahaina,"Lahaina, Rest of Hawaii",-156.674835,20.885226,Asian,10,Dollar($),No,No,No,No,1,4.6,Dark Green,Excellent,723,zomato
425,Aloha Mixed Plate,216,Rest of Hawaii,"1285 Front St, Lahaina, HI 96761",Lahaina,"Lahaina, Rest of Hawaii",-156.684967,20.886564,"Asian, Breakfast, Hawaiian",10,Dollar($),No,No,No,No,1,4.2,Green,Very Good,874,zomato
426,Gazebo,216,Rest of Hawaii,"5315 Lower Honoapiilani Rd, Lahaina, HI 96761",Lahaina,"Lahaina, Rest of Hawaii",-156.667037,20.992316,"Breakfast, Burger",25,Dollar($),No,No,No,No,2,4.4,Green,Very Good,552,zomato
427,Hula Grill,216,Rest of Hawaii,"2435 Kaanapali Pkwy, Lahaina, HI 96761",Lahaina,"Lahaina, Rest of Hawaii",-156.693821,20.921347,"Hawaiian, Seafood, Steak",40,Dollar($),No,No,No,No,3,4.3,Green,Very Good,1056,zomato
428,Kimo's,216,Rest of Hawaii,"845 Front St, Lahaina, HI 96761",Lahaina,"Lahaina, Rest of Hawaii",-156.680666,20.876127,"Hawaiian, Seafood, Steak",40,Dollar($),No,No,No,No,3,4.3,Green,Very Good,707,zomato
429,Mama's Fish House,216,Rest of Hawaii,"799 Poho Pl, Paia, HI 96779",Paia,"Paia, Rest of Hawaii",-156.366445,20.929622,"Hawaiian, Seafood",70,Dollar($),No,No,No,No,4,4.9,Dark Green,Excellent,1343,zomato
430,Marukame Udon,216,Rest of Hawaii,"2310 Kuhio Avenue, Honolulu, HI 96815",Waikiki,"Waikiki, Rest of Hawaii",-157.825979,21.279476,Japanese,10,Dollar($),No,No,No,No,1,4.9,Dark Green,Excellent,602,zomato
431,Yard House,216,Rest of Hawaii,"226 Lewers St, Honolulu, HI 96815",Waikiki,"Waikiki, Rest of Hawaii",-157.831248,21.279495,"American, Asian, Burger",40,Dollar($),No,No,No,No,3,4.6,Dark Green,Excellent,1078,zomato
432,Lulu's Waikiki,216,Rest of Hawaii,"2586 Kalakaua Ave, Honolulu, HI 96815",Waikiki,"Waikiki, Rest of Hawaii",-157.822716,21.271826,American,25,Dollar($),No,No,No,No,2,3.9,Yellow,Good,232,zomato
433,Duke's Waikiki,216,Rest of Hawaii,"2335 Kalakaua Ave, Honolulu, HI 96815",Waikiki,"Waikiki, Rest of Hawaii",-157.827196,21.277583,"Hawaiian, Seafood, Steak",70,Dollar($),No,No,No,No,4,4.4,Green,Very Good,1492,zomato
434,Eggs 'n Things,216,Rest of Hawaii,"343 Saratoga Road, Honolulu, HI 96815",Waikiki,"Waikiki, Rest of Hawaii",-157.831538,21.280663,Breakfast,10,Dollar($),No,No,No,No,1,4,Green,Very Good,535,zomato
435,Roy's,216,Rest of Hawaii,"226 Lewers St, Honolulu, HI 96815",Waikiki,"Waikiki, Rest of Hawaii",-157.831176,21.279154,"Asian, European, Seafood",70,Dollar($),No,No,No,No,4,4.2,Green,Very Good,531,zomato
436,Wailana Coffee House,216,Rest of Hawaii,"1860 Ala Moana Blvd, Honolulu, HI 96815",Waikiki,"Waikiki, Rest of Hawaii",-157.836031,21.285396,"American, Breakfast, Hawaiian",25,Dollar($),No,No,No,No,2,4.2,Green,Very Good,694,zomato
437,The Lady & Sons,216,Savannah,"102 W Congress St, Savannah, GA 31401",Savannah,"Savannah, Savannah",-81.0954,32.0804,Southern,40,Dollar($),No,No,No,No,3,3.3,Orange,Average,1201,zomato
438,Green Truck Pub,216,Savannah,"2430 Habersham Street, Savannah, GA 31401",Savannah,"Savannah, Savannah",-81.096647,32.052858,Burger,40,Dollar($),No,No,No,No,3,4.7,Dark Green,Excellent,906,zomato
439,Leopold's Ice Cream,216,Savannah,"212 E Broughton Street, Savannah, GA 31401",Savannah,"Savannah, Savannah",-81.0894,32.0785,"Desserts, Sandwich, Ice Cream",10,Dollar($),No,No,No,No,1,4.6,Dark Green,Excellent,880,zomato
440,Mrs. Wilkes' Dining Room,216,Savannah,"107 W Jones St, Savannah, GA 31401",Savannah,"Savannah, Savannah",-81.0955,32.0727,"American, Southern",40,Dollar($),No,No,No,No,3,4.5,Dark Green,Excellent,1014,zomato
441,Zunzi's,216,Savannah,"108 E York Street, Savannah, GA 31401",Savannah,"Savannah, Savannah",-81.0911,32.0775,"International, Mediterranean, Sandwich",25,Dollar($),No,No,No,No,2,4.5,Dark Green,Excellent,796,zomato
442,Moon River Brewing Company,216,Savannah,"21 W Bay St, Savannah, GA 31401",Savannah,"Savannah, Savannah",-81.0916,32.0809,"American, Bar Food, Sandwich",25,Dollar($),No,No,No,No,2,3.7,Yellow,Good,747,zomato
443,Pirates' House Restaurant,216,Savannah,"20 E Broad St, Savannah, GA 31401",Savannah,"Savannah, Savannah",-81.0844,32.0782,"American, Seafood, Steak",40,Dollar($),No,No,No,No,3,3.8,Yellow,Good,566,zomato
444,B. Matthew's Eatery,216,Savannah,"325 E Bay St, Savannah, GA 31401",Savannah,"Savannah, Savannah",-81.0875,32.0798,"American, Breakfast",25,Dollar($),No,No,No,No,2,4.1,Green,Very Good,683,zomato
445,Crystal Beer Parlor,216,Savannah,"301 W Jones St, Savannah, GA 31401",Savannah,"Savannah, Savannah",-81.0979,32.0735,"American, Bar Food",25,Dollar($),No,No,No,No,2,4.4,Green,Very Good,690,zomato
446,Goose Feathers Cafe and Bakery,216,Savannah,"39 Barnard St, Savannah, GA 31401",Savannah,"Savannah, Savannah",-81.0941,32.0801,"Breakfast, Vegetarian",10,Dollar($),No,No,No,No,1,4.2,Green,Very Good,680,zomato
447,Henry's,216,Savannah,"28 Drayton St, Savannah, GA 31401",Savannah,"Savannah, Savannah",-81.090521,32.079477,"American, Breakfast",10,Dollar($),No,No,No,No,1,4.1,Green,Very Good,287,zomato
448,Huey's On The River,216,Savannah,"115 E River St, Savannah, GA 31401",Savannah,"Savannah, Savannah",-81.0897,32.0812,"Breakfast, Cajun",40,Dollar($),No,No,No,No,3,4.1,Green,Very Good,802,zomato
449,J. Christopher's,216,Savannah,"122 E. Liberty, Savannah, GA 31401",Savannah,"Savannah, Savannah",-81.091482,32.074495,"Breakfast, Diner, Sandwich",25,Dollar($),No,No,No,No,2,4.3,Green,Very Good,710,zomato
450,Lulu's Chocolate Bar,216,Savannah,"42 MLK Jr. Blvd, Savannah, GA 31401",Savannah,"Savannah, Savannah",-81.097051,32.080742,"Coffee and Tea, Desserts",10,Dollar($),No,No,No,No,1,4.3,Green,Very Good,456,zomato
451,Rocks on the River,216,Savannah,"102 West Bay St., Savannah, GA 31401",Savannah,"Savannah, Savannah",-81.092484,32.081394,"Pizza, Seafood, Steak",70,Dollar($),No,No,No,No,4,4,Green,Very Good,687,zomato
452,SOHO South Cafe,216,Savannah,"12 W Liberty St, Savannah, GA 31401",Savannah,"Savannah, Savannah",-81.0939,32.0747,"Cafe, Sandwich, Southern",25,Dollar($),No,No,No,No,2,4.3,Green,Very Good,719,zomato
453,The Olde Pink House,216,Savannah,"23 Abercorn St, Savannah, GA 31401",Savannah,"Savannah, Savannah",-81.0897,32.0798,"American, Seafood, Southern",70,Dollar($),No,No,No,No,4,4.4,Green,Very Good,1803,zomato
454,Vic's On The River,216,Savannah,"26 E Bay St, Savannah, GA 31401",Savannah,"Savannah, Savannah",-81.0908,32.0809,American,70,Dollar($),No,No,No,No,4,4.1,Green,Very Good,558,zomato
455,The Crab Shack,216,Savannah,"40 Estill Hammock Rd, Tybee Island, GA 31328",Tybee Island,"Tybee Island, Savannah",-80.865909,32.011689,Seafood,40,Dollar($),No,No,No,No,3,3.8,Yellow,Good,883,zomato
456,Tybee Island Social Club,216,Savannah,"1311 Butler Ave, Tybee Island, GA 31328",Tybee Island,"Tybee Island, Savannah",-80.848297,31.99581,,10,Dollar($),No,No,No,No,1,3.9,Yellow,Good,309,zomato
457,Sky On 57,184,Singapore,"10 Bayfront Avenue, 57 Marina Bay Sands 018956","Bayfront Avenue, Downtown Core","Bayfront Avenue, Downtown Core, Singapore",103.860005,1.282661,"Chinese, Continental, Singaporean",300,Dollar($),No,No,No,No,4,3.4,Orange,Average,34,zomato
458,Cut By Wolfgang Puck,184,Singapore,"2 Bayfront Avenue, B1-71 Marina Bay Sands 018972","Bayfront Subzone, Downtown Core","Bayfront Subzone, Downtown Core, Singapore",103.859422,1.285477,"American, Steak",270,Dollar($),No,No,No,No,4,4,Green,Very Good,33,zomato
459,Restaurant Andre,184,Singapore,41 Bukit Pasoh Road 089855,"Cantonment Road, Outram","Cantonment Road, Outram, Singapore",103.84036,1.27942,"French, Mediterranean, European",500,Dollar($),No,No,No,No,4,3.8,Yellow,Good,33,zomato
460,Potato Head Folk,184,Singapore,36 Keong Saik Road 089143,"Chinatown, Outram","Chinatown, Outram, Singapore",103.841669,1.280503,American,80,Dollar($),No,No,No,No,4,3.1,Orange,Average,34,zomato
461,Jaan,184,Singapore,"2 Stamford Road, Level 70 Equinox Complex 178882","City Hall, Downtown Core","City Hall, Downtown Core, Singapore",103.853605,1.293221,French,430,Dollar($),No,No,No,No,4,3.8,Yellow,Good,35,zomato
